ID,lat,lon,name,type,notes
L785746,36.0241422,-78.9252663,17 Acre Woods,hotspot,
L1473295,35.5002526,-80.8075151,Abersham (Huntersville),hotspot,
L452423,34.215,-77.8294444,Airlie Gardens,hotspot,
L1813013,36.0089703,-79.5200486,Alamance Battleground SHS,hotspot,
L2221286,35.7184878,-82.6326719,Alexander Mountain Bike Park,hotspot,
L1303164,35.7319332,-79.6592045,Allen H. Leonard Memorial Park aka Brooklyn Park,hotspot,
L1857419,35.7689098,-75.7426208,Alligator NWR--Point Peter Rd.,hotspot,
L189480,35.864075,-75.86201,Alligator River NWR,hotspot,
L662525,35.8663085,-75.9186709,Alligator River NWR--Buffalo City Rd. ,hotspot,
L2225934,35.7694231,-75.7683438,Alligator River NWR--Point Peter Rd.,hotspot,
L1818977,35.8682062,-75.9427724,Alligator River NWR--River Rd.,hotspot,
L697961,35.8375158,-75.918982,Alligator River NWR--Sandy Ridge trail,hotspot,
L1931477,35.8475958,-75.8712387,Alligator River NWR--Sawyer Lake Rd.,hotspot,
L365545,35.830827,-75.8398247,Alligator River NWR--Wildlife Drive,hotspot,
L1824635,35.9007501,-76.0048703,Alligator River draw bridge,hotspot,
L199989,35.8966667,-80.8036111,Allison Woods,hotspot,
L1475968,35.7156061,-78.9428878,American Tobacco Trail--South End (Wake Co.),hotspot,
L998113,35.7610248,-78.9211003,American Tobacco Trail--White Oak Creek,hotspot,
L775652,35.9046246,-76.4802933,American Turf Farms,hotspot,
L2177464,35.3105783,-78.9554787,Anderson Creek Park,hotspot,
L599964,35.7708202,-78.5420322,Anderson Point Park,hotspot,
L1047700,34.2302547,-77.8974438,Anne McCrary Park,hotspot,
L496866,35.7521894,-78.8255095,Apex Community Park,hotspot,
L1552657,35.5860329,-83.073781,Appalachian Highlands Science Learning Center,hotspot,
L1275705,35.3704176,-83.7046677,Appalachian Inn (request permission),hotspot,
L2190527,35.9881941,-82.7814331,Appalachian Trail--Allen Gap,hotspot,
L1739734,35.9107133,-82.7914797,Appalachian Trail--Mill Ridge Rd. to Rich Mountain,hotspot,
L302549,35.35778,-83.71861,Appalachian Trail--Stecoah Gap,hotspot,
L386755,36.0402506,-80.3019691,Archie Elledge Treatment Plant,hotspot,
L1522534,35.904276,-81.54191,Armory Wetlands--Lenoir,hotspot,
L1068007,34.6948416,-76.7268677,Atlantic Beach Pier,hotspot,
L986625,35.2439368,-79.5969772,Auman Lake,hotspot,
L1245796,35.3218158,-76.7470551,Aurora Waterfowl Impoundments,hotspot,
L1050819,36.0448866,-75.6728926,Avalon Pier,hotspot,
L772130,36.0786124,-79.084509,Ayr Mount Plantation,hotspot,
L1478917,35.9067798,-78.6684001,Baileywick Road Park,hotspot,
L216915,35.6577074,-81.4065829,Bakers Mountain,hotspot,
L579820,33.8624335,-77.9850769,Bald Head Island,hotspot,
L1248065,33.9016715,-78.0171776,Bald Head Island Ferry,hotspot,
L1829755,33.841965,-77.961051,Bald Head Island--Cape Fear Point,hotspot,
L1831948,33.8549742,-77.9600854,Bald Head Island--East Beach,hotspot,
L750173,33.8657119,-77.9704857,Bald Head Island--Ibis Lake Sanctuary,hotspot,
L1281639,33.860841,-77.9832825,Bald Head Island--M. Kent Mitchell Nature Trail,hotspot,
L1439955,35.3961789,-83.1287619,Balsam Mountain Preserve (private),hotspot,
L790915,35.8043969,-78.6043453,Barksdale Drive Greenway,hotspot,
L1499308,35.873594,-81.248507,Barrett Mountain,hotspot,
L1352674,35.6381473,-78.8083899,Bass Lake (Wake Co.),hotspot,
L1324253,34.6709774,-78.4080505,Bay Tree Lake,hotspot,
L1346864,35.4052034,-76.7406616,Bayview-Aurora Ferry,hotspot,
L1270959,35.0977113,-76.04702,Beacon Island,hotspot,
L557151,35.69718,-77.15866,Bear Grass VOA site,hotspot,
L1804377,35.4605084,-82.3679656,Bearwallow Mountain,hotspot,
L2209467,34.724266,-76.6644192,Beaufort Harbor,hotspot,
L1050135,34.6909849,-76.6698503,Beaufort Inlet,hotspot,
L1836987,34.7127316,-76.650061,Beaufort Waterfront,hotspot,
L998115,35.7173085,-78.9461628,Beaver Creek Waterfowl Impoundment,hotspot,
L166279,35.633465,-82.55752,Beaver Lake Sanctuary,hotspot,
L855859,36.0187243,-78.8841314,Beaver Marsh,hotspot,
L1048819,36.3186522,-80.0287485,Belews Lake (Rockingham Co.),hotspot,
L1796642,36.2997516,-80.0526523,Belews Lake--Pine Hall Access Area,hotspot,
L603699,36.1400235,-76.6650009,Bennett's Millpond,hotspot,
L477250,36.1511131,-80.2993298,Bethabara City Park,hotspot,
L358727,36.1553406,-80.2995872,Bethabara Park--Lower Trail,hotspot,
L1497932,36.1559124,-80.3026699,Bethabara Park--Mill Creek Trail,hotspot,
L358733,36.1557564,-80.3140068,Bethabara Wetlands,hotspot,
L1021141,36.1780162,-80.3390694,Bethania--Black Walnut Bottom,hotspot,
L1146599,36.0941756,-79.6419096,Bethel Church Rd.,hotspot,
L798323,36.0055761,-75.7019806,Big Colington Island,hotspot,
L786704,35.5400314,-82.5507438,Biltmore Estate,hotspot,
L2145986,35.5534398,-82.5865245,Biltmore Estate--Deer Park River Trail,hotspot,
L2145970,35.5402234,-82.5613117,Biltmore Estate--The Lagoon,hotspot,
L1756842,33.859401,-78.5268438,Bird Island State Reserve,hotspot,
L593591,35.4289244,-76.7669678,Bird Shoal--Beaufort Inlet,hotspot,
L612331,35.6077837,-82.3366499,Black Mountain Rec. Park/Montreat College,hotspot,
L357680,34.6899686,-78.5910416,Bladen Lakes SF,hotspot,
L1665529,34.5963382,-78.5194845,Bladen Lakes SF--Singletary Lake area,hotspot,
L1174603,35.0057312,-79.9004631,Blewett Falls Lake,hotspot,
L1459398,35.9691822,-78.6425937,Blue Jay Point County Park,hotspot,
L698118,36.4211443,-81.1879349,Blue Ridge Pkwy--Alligator Back,hotspot,
L808055,35.7152501,-82.2741061,Blue Ridge Pkwy--Bald Knob Ridge Trail,hotspot,
L997449,35.7484627,-82.3337638,Blue Ridge Pkwy--Balsam Gap,hotspot,
L1278876,36.0824363,-81.8292189,Blue Ridge Pkwy--Beacon Heights,hotspot,
L1267439,35.6997537,-82.3918283,Blue Ridge Pkwy--Bearpen Gap,hotspot,
L1285045,35.6999651,-82.3991776,Blue Ridge Pkwy--Beetree Gap,hotspot,
L1639938,36.2817027,-81.412966,Blue Ridge Pkwy--Betsy Rock Falls,hotspot,
L1495413,36.4188375,-81.1462716,Blue Ridge Pkwy--Brinegar Cabin,hotspot,
L720848,35.6561804,-82.4561691,Blue Ridge Pkwy--Bull Creek Valley Overlook,hotspot,
L933021,35.812567,-82.1428764,Blue Ridge Pkwy--Crabtree Meadows,hotspot,
L1267432,35.7046152,-82.3738039,Blue Ridge Pkwy--Craggy Dome,hotspot,
L305111,35.6930556,-82.3833333,Blue Ridge Pkwy--Craggy Gardens,hotspot,
L745958,35.6455792,-82.4935913,Blue Ridge Pkwy--Craven Gap,hotspot,
L956046,36.0509119,-81.8573391,Blue Ridge Pkwy--Flat Rock,hotspot,
L1267429,35.7342585,-82.3442727,Blue Ridge Pkwy--Glassmine Falls Overlook,hotspot,
L1569072,35.3090845,-82.889072,Blue Ridge Pkwy--Graveyard Fields,hotspot,
L1267431,35.7111204,-82.3642364,Blue Ridge Pkwy--Graybeard Mountain Overlook,hotspot,
L781785,35.8857123,-82.0112228,Blue Ridge Pkwy--Hefner Gap,hotspot,
L1639910,36.3244025,-81.3680418,Blue Ridge Pkwy--Jumpinoff Rock,hotspot,
L907220,35.669935,-82.442093,Blue Ridge Pkwy--Lane Pinnacle Overlook,hotspot,
L1158095,36.2619238,-81.4404837,Blue Ridge Pkwy--Lewis Fork Overlook,hotspot,
L613247,35.9498013,-81.9260788,Blue Ridge Pkwy--Linville Falls,hotspot,
L896850,36.4421029,-81.0311866,Blue Ridge Pkwy--Little Glade Millpond,hotspot,
L615103,36.4406184,-81.0796165,Blue Ridge Pkwy--Mahogany Rock,hotspot,
L896844,36.4810013,-80.9795272,Blue Ridge Pkwy--Mountain View Rd. Pond,hotspot,
L765620,35.8722206,-82.0266724,Blue Ridge Pkwy--Orchard Overlook,hotspot,
L1499398,35.3946428,-82.7610476,Blue Ridge Pkwy--Pisgah Ridge,hotspot,
L2316924,35.6631431,-82.4608898,Blue Ridge Pkwy--Rattlesnake Lodge Trail,hotspot,
L1577696,35.3630024,-82.9919966,Blue Ridge Pkwy--Richland Balsam Overlook,hotspot,
L781868,35.7172493,-82.2773838,Blue Ridge Pkwy--Ridge Junction,hotspot,
L2341818,35.3971664,-83.0460835,Blue Ridge Pkwy--Roy Taylor Overlook,hotspot,
L2259636,36.0901419,-81.8205607,Blue Ridge Pkwy--Stack Rock Creek & Overlook,hotspot,
L1291744,36.1362458,-81.6430628,Blue Ridge Pkwy--Thunderhill Overlook,hotspot,
L784636,35.4639557,-83.1376433,Blue Ridge Pkwy--Waterrock Knob,hotspot,
L2173744,35.6666756,-82.4633038,Blue Ridge Pkwy.--Bull Gap,hotspot,
L2184923,36.144674,-81.63352,BlueRidge Pkwy--Raven Rock Overlook,hotspot,
L1354088,34.2244324,-77.8718085,Bluethenthal Wildflower Preserve,hotspot,
L1168186,35.434834,-80.9063244,Blythe Landing Park,hotspot,
L365371,35.819076,-75.562966,Bodie Island Lighthouse & Pond,hotspot,
L161359,35.83866,-75.5717,Bodie Island National Park,hotspot,
L365370,35.82994,-75.55782,Bodie Island--Coquina Beach,hotspot,
L1050808,34.6444855,-77.1039562,Bogue Inlet,hotspot,
L1360458,34.6605637,-77.0330567,Bogue Inlet Pier,hotspot,
L927721,34.0208928,-78.0637729,Boiling Spring Lakes Nature Trail,hotspot,
L517191,35.9249008,-79.04533,Bolin Creek Trail,hotspot,
L911407,35.7785499,-78.8269043,Bond Park,hotspot,
L902289,36.208044,-81.6531801,Boone Greenway-- Athletic Fields,hotspot,
L581189,35.7994631,-80.467751,Boone's Cave Park,hotspot,
L1012209,35.6124066,-82.5674486,Botanical Gardens at Asheville,hotspot,
L1598952,35.8207763,-79.0974552,Briar Chapel Trail,hotspot,
L998118,35.8743627,-78.8085108,Brier Creek Reservoir,hotspot,
L1549828,35.9067973,-82.8293755,Broadwing Farm,hotspot,
L1789969,35.060151,-77.3558772,Brock Mill Pond,hotspot,
L1137072,34.1407312,-77.989583,Brunswick Nature Park,hotspot,
L1087240,34.0422763,-77.948041,Brunswick Town State Historic Site,hotspot,
L473638,36.48332,-80.55842,Buck-Byllesby Dams--NRV Trail ,hotspot,
L1646449,36.2277555,-81.9010201,Buckeye Lake Recreation Area,hotspot,
L1035233,35.7004112,-78.1393919,Buckhorn Reservoir,hotspot,
L856484,36.1129167,-79.7854614,Buffalo Lake,hotspot,
L1335217,35.7211797,-81.1153951,Bunker Hill Covered Bridge,hotspot,
L1482507,36.0835257,-79.4529897,Burlington City Park,hotspot,
L1244554,35.6663153,-82.3390503,Burnett Reservoir,hotspot,
L1822404,35.84753,-77.4336282,Burnette Farm Rd. pond,hotspot,
L508336,36.1073477,-78.8050175,Butner Gamelands--Brickhouse Rd. (Durham Co.),hotspot,
L1798222,36.1078356,-78.8036483,Butner Gamelands--Brickhouse Rd. (Granville Co.),hotspot,
L1857093,35.2502082,-75.5847875,Buxton Woods Nature Reserve--Water Association Rd.,hotspot,
L473332,36.1690091,-80.3763199,C. G. Hill Memorial Park,hotspot,
L1890752,34.9830216,-77.7978389,Cabin Lake County Park,hotspot,
L983859,34.7273202,-76.7287302,Calico Creek,hotspot,
L1274914,34.2462054,-77.934469,Calvary Memorial Cemetery (Wilmington),hotspot,
L870602,34.2000122,-77.9425411,Cameron Park,hotspot,
L711156,35.1677043,-80.7365513,Campbell Creek Greenway,hotspot,
L2120259,35.2943217,-76.6318059,Campbell Creek Impoundment 1,hotspot,
L213069,35.0387066,-83.9629672,Campbell Folk School,hotspot,
L269276,35.2985162,-75.5142374,"Canadian Hole, Outer Banks",hotspot,
L1617575,35.3077969,-79.720418,Candor Turf Farm,hotspot,
L1649906,34.8415557,-80.6804546,Cane Creek Park,hotspot,
L614864,35.9492454,-79.2412949,Cane Creek Reservoir,hotspot,
L998119,35.5409358,-78.9888604,Cape Fear River--Buckhorn Road,hotspot,
L1152715,34.4047321,-78.293016,Cape Fear River--Lock and Dam 1,hotspot,
L130081,35.2390251,-75.5356293,Cape Hatteras,hotspot,
L791933,35.3473531,-75.4992807,Cape Hatteras NS--Avon Pier,hotspot,
L1448233,35.235561,-75.5388383,Cape Hatteras NS--Cape Point Campground,hotspot,
L2133546,35.8058413,-75.5477428,Cape Hatteras NS--Coquina Beach,hotspot,
L1232681,35.2369266,-75.6036186,Cape Hatteras NS--Frisco Campground,hotspot,
L1060494,35.2483795,-75.5326104,Cape Hatteras NS--Lighthouse Rd. pond,hotspot,
L1268096,35.7885764,-75.5361557,Cape Hatteras NS--Oregon Inlet Beach(north),hotspot,
L674658,35.4473,-75.4835,Cape Hatteras NS--Ramp 26-32,hotspot,
L674657,35.2346,-75.5691,Cape Hatteras NS--Ramp 44-49,hotspot,
L1670657,35.5776217,-75.4648534,Cape Hatteras NS--Salvo Campground,hotspot,
L1169550,35.2238161,-75.6431222,Cape Hatteras NS--West of Hatteras Fishing Pier,hotspot,
L365397,35.252658,-75.533991,Cape Hatteras--Buxton Woods Trail,hotspot,
L473168,35.2234655,-75.5286026,Cape Hatteras--Cape Point,hotspot,
L365399,35.254639,-75.52154,Cape Hatteras--Old Lighthouse,hotspot,
L557007,35.2300561,-75.5322504,Cape Hatteras--Salt Pond,hotspot,
L792639,34.5878561,-76.535182,Cape Lookout NS--Cape Lookout point,hotspot,
L1287038,34.6864399,-76.527586,Cape Lookout NS--Core Sound Waterfowl Museum Trails,hotspot,
L587342,34.6908155,-76.532135,Cape Lookout NS--Harker's Island,hotspot,
L1249081,34.6602282,-76.5245819,Cape Lookout NS--Morgan Island,hotspot,
L792249,35.0536079,-76.0542297,Cape Lookout NS--Portsmouth Island,hotspot,
L1501038,34.8996383,-76.2540692,Cape Lookout NS--Ramp 16,hotspot,
L1756840,34.6143028,-76.5542352,Cape Lookout NS--jetty,hotspot,
L1420470,35.4480127,-76.2100183,Carawan's Motel vicinity,hotspot,
L882597,35.2719011,-82.4498177,Carl Sandburg National Historic Site,hotspot,
L358130,34.0292245,-77.8966391,Carolina Beach Lake,hotspot,
L243650,34.0499847,-77.9176247,Carolina Beach State Park,hotspot,
L971422,34.0316608,-77.91152,Carolina Beach Wastewater Treatment Plant,hotspot,
L612916,34.054935,-77.8875732,Carolina Beach--Florida Avenue,hotspot,
L612914,34.0583482,-77.8855133,Carolina Beach--North End,hotspot,
L1048820,35.2511828,-82.7299476,Carolina Lake,hotspot,
L1795005,36.523473,-75.8619877,Carova Beach,hotspot,
L690412,35.1724402,-78.8764715,Carvers Creek SP,hotspot,
L1392990,35.2104797,-78.9738085,Carvers Creek SP--Long Valley Farm,hotspot,
L1786459,35.214913,-78.9727785,Carvers Creek SP--Long Valley Farm Harnet,hotspot,
L1048244,35.1064702,-83.1007683,Cashiers Lake,hotspot,
L2078343,34.3340987,-77.9028082,Castle Hayne Park,hotspot,
L1390759,35.6908289,-80.4845173,Catawba College Campus,hotspot,
L581115,35.6898839,-80.478791,Catawba College Ecological Preserve,hotspot,
L1518066,35.179437,-81.002917,Catawba River-- Shopton Rd. Cove to Walker's Ferry Rd. Cove,hotspot,
L1114741,35.7594507,-81.7060304,Cawtaba Meadows Park,hotspot,
L1437610,35.9576122,-79.0331442,Cedar Falls Park,hotspot,
L557019,35.0175905,-76.3137388,Cedar Island Ferry Terminal,hotspot,
L332342,34.9638889,-76.3333333,Cedar Island NWR,hotspot,
L1836917,34.9511101,-76.2811903,Cedar Island NWR--Boat Ramp,hotspot,
L1836931,34.9408513,-76.3378386,Cedar Island NWR--Causeway,hotspot,
L1108904,35.0558563,-76.1613464,Cedar Island/Ocracoke Ferry,hotspot,
L962766,35.9921569,-79.4432867,Cedarock Park,hotspot,
L71358,35.568333,-82.906944,Chambers Mountain,hotspot,
L1371183,36.2952728,-76.2170507,Charles Creek Park,hotspot,
L849409,35.2248328,-80.955795,Charlotte/Douglas International Airport--Overlook Park,hotspot,
L2103184,35.0463003,-83.4612465,Chattahoochee-Oconee NF--Coweeta Hydrologic Lab,hotspot,
L1244768,35.4619749,-83.8953323,Cheoah Lake,hotspot,
L2220782,35.3368464,-84.0308833,Cherohala Skyway--Old Santeelah Rd.,hotspot,
L792004,35.4987708,-77.1694171,Chicod Creek,hotspot,
L522709,35.4321765,-82.2495747,Chimney Rock SP,hotspot,
L1094129,36.3666323,-76.7656374,Chowan Swamp Game Land--New Ferry Rd.,hotspot,
L681004,36.5077997,-76.9067699,Chowan Swamp Game Lands,hotspot,
L633731,35.3544762,-80.2313089,City Lake (Albemarle),hotspot,
L1248078,35.9495696,-77.8199387,City Lake (Rocky Mount),hotspot,
L387560,36.0853496,-80.2255583,Civitan Park,hotspot,
L459175,35.3,-75.6666667,Clam Shoal (a.k.a. Bird Island),hotspot,
L618356,35.3532511,-80.8081555,Clark's Creek Nature Preserve,hotspot,
L472712,35.684455,-78.4890747,Clemmons Educational State Forest,hotspot,
L387754,35.235636,-77.890952,Cliffs of the Neuse SP,hotspot,
L480402,35.4809414,-80.7168102,Coddle Creek Reservoir--north end,hotspot,
L482295,35.4368117,-80.7100886,Coddle Creek Reservoir--south end,hotspot,
L1135386,35.7660846,-82.9720974,Cold Springs Creek Rd.,hotspot,
L1021786,35.0645681,-80.7423878,Colonel Francis Beatty Park,hotspot,
L1441517,35.8764264,-80.0351523,Colonial Country Club (restricted access),hotspot,
L2022192,36.4463492,-79.0728307,Concord Methodist Church fields,hotspot,
L618362,35.3714675,-80.7200611,Concord Mills Mall Pond,hotspot,
L483059,35.3740045,-80.7166386,Concord Mills Wetland,hotspot,
L1368162,35.7023991,-81.1947591,Conover Blvd. E. (Collared-Dove),hotspot,
L2301126,35.701181,-81.218445,Conover City Park Wetlands,hotspot,
L1065690,35.1078675,-81.0268307,Copperhead Island,hotspot,
L404717,34.8334439,-76.6905141,Core Creek,hotspot,
L839783,34.8656514,-76.7669678,Core Creek,hotspot,
L2161096,35.754608,-81.342806,Corinth Reformed Church Wetlands,hotspot,
L2112826,36.0802512,-80.1865911,Cornerstone Living Centre Pond,hotspot,
L1049565,35.9786487,-78.9522493,Cornwallis Road Park,hotspot,
L282505,35.3714422,-80.9744294,Cowan's Ford Wildlife Refuge,hotspot,
L467407,35.0583333,-83.4361111,Coweeta Hydrological Lab,hotspot,
L1431612,35.8169399,-78.858515,Crabtree Creek Watershed,hotspot,
L620039,35.8750026,-76.3800645,Creswell Catfish Ponds,hotspot,
L1137108,34.9506792,-77.0306396,Croatan NF--Catfish Lake Rd.,hotspot,
L619728,34.9549704,-77.1245384,Croatan NF--Catfish Lake Waterfowl Impoundments,hotspot,
L579948,34.6921211,-77.087245,Croatan NF--Cedar Point Tideland Trail,hotspot,
L307025,34.8436855,-76.9533335,Croatan NF--Craven Co.,hotspot,
L738165,34.9449102,-76.9862652,Croatan NF--Gum Swamp Bottomland Forest,hotspot,
L713357,34.8191235,-77.1849632,Croatan NF--Haywood Landing,hotspot,
L387763,35.0659731,-77.1542358,Croatan NF--Island Creek Walk (Jones Co.),hotspot,
L1014069,34.9833154,-77.0649719,Croatan NF--Little Road,hotspot,
L738052,34.7661532,-76.9556236,Croatan NF--Millis Rd. Savanna,hotspot,
L738088,34.9832451,-76.9488001,Croatan NF--Neuse River Recreation Area,hotspot,
L741082,34.7211916,-76.9614816,Croatan NF--Patsy Pond Nature Trail,hotspot,
L833503,34.9393871,-76.8228436,Croatan NF--Pine Cliff Recreation Area,hotspot,
L1347587,34.8978767,-76.9448168,Croatan NF--Powerline near Havelock,hotspot,
L983863,34.7387207,-76.9908142,Croatan NF--Pringle Road,hotspot,
L895579,34.9259178,-76.7826748,Croatan NF--Shadyview Beach,hotspot,
L192764,35.214237,-81.29471,Crowders Mountain State Park,hotspot,
L557015,34.6919888,-77.0867407,Crystal Cove Nature Trail,hotspot,
L2161402,36.1489993,-81.1446762,Cub Creek Park,hotspot,
L357285,35.006835,-78.85952,Cumberland County Park,hotspot,
L999877,36.5532581,-80.9081268,Cumberland Knob Recreation Area,hotspot,
L1628623,36.4662266,-75.9697802,Currituck - Knotts Island Ferry,hotspot,
L674445,36.3899117,-75.8316922,Currituck Banks National Estuarine Research Reserve,hotspot,
L449788,36.3739667,-75.8328187,Currituck Heritage Park,hotspot,
L1030229,36.42736,-75.838623,Currituck NWR,hotspot,
L998121,35.9755126,-79.1838495,Dairyland Road--Anilorac Farm,hotspot,
L786002,35.9777283,-79.1399717,Dairyland Road--Maple View Farm,hotspot,
L891106,35.6402781,-80.3456783,Dan Nicholas Park,hotspot,
L1515426,36.209986,-81.6706754,Daniel Boone Native Gardens,hotspot,
L1428242,35.1674013,-81.0567505,Daniel Stowe Botanical Garden,hotspot,
L977740,35.4033581,-80.8156872,David B. Waymer Flying Fields,hotspot,
L973820,34.8099627,-76.4734268,Davis Waterfowl Impoundments,hotspot,
L1498259,34.1225665,-78.0122281,Daws Creek Rd.,hotspot,
L1287534,35.4648645,-83.4327507,Deep Creek Campground,hotspot,
L1011830,35.8215018,-79.7995377,Deep River Nature Trail,hotspot,
L1298774,35.7378169,-79.6849322,Deep River Rail Trail,hotspot,
L207867,35.187,-82.53,Devils Courthouse OL,hotspot,
L304320,35.3026897,-82.905293,Devils Courthouse/Graveyard Fields,hotspot,
L1048226,36.2069394,-75.8404255,Dews Island,hotspot,
L848005,34.8857461,-76.3469982,Dick's Pond,hotspot,
L793945,36.0968342,-80.5193996,Dinkins Bottom,hotspot,
L1989865,35.8832367,-78.8748837,Discovery Lake,hotspot,
L421615,36.5053847,-76.3559783,Dismal Swamp SP,hotspot,
L880857,36.5325365,-76.4602089,Dismal Swamp SP--Kim Saunders Ditch,hotspot,
L1022735,36.4069155,-81.1711121,Doughton Park,hotspot,
L982005,36.4215414,-81.1837238,Doughton Park--Bluff Mountain Trail,hotspot,
L896839,36.4302777,-81.1752641,Doughton Park--Fodder Stack,hotspot,
L580797,36.3760658,-81.1463928,Doughton Park--Longbottom Rd.,hotspot,
L1743452,36.1653951,-75.7558532,Duck Park Boardwalk,hotspot,
L998128,36.0178371,-78.9827052,Duke Forest -- Gate 10,hotspot,
L998129,36.0253414,-78.9894183,Duke Forest -- Gate 12,hotspot,
L998126,36.0073189,-78.9659039,Duke Forest -- Gate 4,hotspot,
L1066879,36.0323903,-79.0628743,Duke Forest--Eno Division,hotspot,
L499738,35.991749,-79.0281022,Duke Forest--Korstian Division,hotspot,
L389351,36.0133333,-78.9725,Duke Forest--Shepherd Nature Trail ,hotspot,
L2152679,36.0136994,-78.892436,Duke Park,hotspot,
L718272,35.9897437,-78.943795,Duke University Wetland Center 'SWAMP',hotspot,
L1654972,35.0391063,-83.0676913,Dulaney Bog,hotspot,
L1397445,34.9912913,-78.1328468,Duplin County I-40 rest area,hotspot,
L1248659,35.1913017,-82.6226377,Dupont SF,hotspot,
L599979,35.8932569,-78.5801411,Durant Nature Park,hotspot,
L1157162,36.2376275,-81.5013885,E. B. Jeffress Park,hotspot,
L1057149,35.9980769,-78.5147595,E. Carroll Joyner Park,hotspot,
L1644887,35.6803126,-77.2002615,Eagle Farm-Carolina Classic Catfish Farms,hotspot,
L973829,34.2081112,-77.9648209,Eagle Island Spoil Ponds,hotspot,
L1854264,35.603464,-80.267678,Eagle Point Nature Preserve,hotspot,
L674614,34.6495906,-76.5520477,East Shackleford Banks,hotspot,
L1804745,35.2580992,-82.6941479,Ecusta Pond,hotspot,
L1371427,36.1187681,-78.9101642,Eden Lakes,hotspot,
L1435480,35.7880683,-78.6551607,Edna Metz Wells Park,hotspot,
L1158973,36.3205886,-81.7105579,Elk Knob Game Land,hotspot,
L902789,36.3326207,-81.6955483,Elk Knob State Natural Area,hotspot,
L2139896,36.2535139,-80.8624542,Elkin Creek Nature Trail,hotspot,
L593582,34.6645582,-77.0393944,Emerald Isle,hotspot,
L2153912,34.6625286,-77.0664096,Emerald Isle Woods,hotspot,
L1788586,34.6715996,-77.0055383,Emerald Isle boat ramp,hotspot,
L2153919,34.6554068,-77.0561314,Emerald Isle--Islander Public Beach Access,hotspot,
L998130,36.0397769,-78.990378,Eno River SP -- Cabe Lands Access,hotspot,
L880445,36.0470257,-79.0112525,Eno River SP -- Pleasant Green,hotspot,
L499740,36.0608172,-78.9765179,Eno River SP--Cole Mill/Pump Station,hotspot,
L871898,36.0732448,-79.0061617,Eno River SP--Few's Ford,hotspot,
L1522491,36.0426721,-79.0000289,Eno River SP--The Quarry,hotspot,
L2217654,36.0448847,-78.9935875,Eno River--Pleasant Green to Cole Mill,hotspot,
L502099,35.9341661,-79.0137148,Ephesus Park--Chapel Hill,hotspot,
L932543,34.165014,-78.1214619,Ev--Henwood Nature Preserve,hotspot,
L168301,35.20786,-80.774475,Evergreen Nature Preserve,hotspot,
L1143758,35.185068,-80.7862043,Evergreen Nature Preserve,hotspot,
L420846,35.9698097,-78.6246014,Falls Lake,hotspot,
L871971,36.0660781,-78.8053608,Falls Lake -- Ellerbe Creek RR grade,hotspot,
L998159,36.0137828,-78.6287084,Falls Lake -- New Light Creek,hotspot,
L998163,36.0374605,-78.7414995,Falls Lake -- Olive Grove Church Rd Gamelands,hotspot,
L998161,36.054241,-78.7235148,Falls Lake -- Olive Grove Church Road Ramp,hotspot,
L998199,36.0806258,-78.755137,Falls Lake -- Will Suitt Rd RR grade,hotspot,
L1475724,36.0175083,-78.6998335,Falls Lake SRA--Woodpecker Ridge,hotspot,
L599112,36.0384927,-78.6795773,Falls Lake--Beaverdam Reservoir,hotspot,
L1829715,36.0495173,-78.7507467,Falls Lake--Cheek Rd. Causeway (Wake Co.),hotspot,
L998120,36.0473502,-78.7551241,Falls Lake--Cheek Road Causeway (Durham Co.),hotspot,
L599104,35.9415313,-78.5831451,Falls Lake--Dam,hotspot,
L619863,36.0580233,-78.7735672,Falls Lake--Hickory Hills Boat Ramp,hotspot,
L599108,35.9965423,-78.6525822,Falls Lake--Holly Pt./Shinleaf,hotspot,
L599109,36.0229812,-78.690691,Falls Lake--Hwy. 50 Boat Ramp,hotspot,
L593590,36.0812068,-78.7896645,Falls Lake--Neuse River RR Grade (Granville Co),hotspot,
L1809146,36.0762975,-78.7935269,Falls Lake--Railroad Grade (Durham Co.),hotspot,
L517564,36.0093255,-78.7274694,Falls Lake--Rolling View,hotspot,
L599113,36.0384472,-78.7117195,Falls Lake--Sandling Beach,hotspot,
L2115223,36.0796824,-78.6611137,Falls Lake--Upper Beaver Dam (Granville Co.),hotspot,
L1072298,36.0518053,-78.6736107,Falls Lake--Upper Beaverdam Reservoir,hotspot,
L1264141,36.0629583,-78.7639904,Falls Lake--Will Suitt mudflats,hotspot,
L1351997,36.3268996,-76.2173209,Fenwick-Hollowell Memorial Wetland Area,hotspot,
L1066890,35.4384354,-83.4018517,Ferguson Fields (Kituwah Farm),hotspot,
L1833258,35.4252251,-80.6817313,Finger Lake,hotspot,
L1131899,35.4899498,-80.7993114,Fisher Farm Park,hotspot,
L1137156,35.0003339,-76.9766414,Fisher Landing Recreation Site,hotspot,
L998132,36.127421,-78.8321335,Flat River Waterfowl Impoundment,hotspot,
L898752,35.4255673,-82.4953079,Fletcher Community Park,hotspot,
L1481903,35.5927591,-82.4818871,Folk Art Center,hotspot,
L791930,33.8903675,-78.0199242,Fort Caswell,hotspot,
L337931,33.9513428,-77.9276087,Fort Fisher SRA,hotspot,
L241664,33.957634,-77.9308858,Fort Fisher SRA - Basin Trail,hotspot,
L1642999,33.9367733,-77.933321,Fort Fisher SRA--Spit,hotspot,
L1248637,33.9478932,-77.9474401,Fort Fisher SRA--Zeke's Island,hotspot,
L792448,33.9720237,-77.9188666,Fort Fisher State Historic Site,hotspot,
L971418,33.9629522,-77.9283857,Fort Fisher--Aquarium Trail,hotspot,
L792451,33.9593705,-77.9415151,Fort Fisher--Federal Point/The Rocks,hotspot,
L792459,33.9608032,-77.9387069,Fort Fisher--Ferry Parking and Trail,hotspot,
L842062,33.9697726,-77.9176569,Fort Fisher--Ocean Overlook/Coquina Outcropping,hotspot,
L978885,33.9803781,-77.9147708,Fort Fisher--Recreation Area Fields,hotspot,
L2038986,36.1237328,-81.2734222,Fort Hamby Park,hotspot,
L387768,34.7032354,-76.6983032,Fort Macon SP,hotspot,
L1317521,34.6937795,-76.6793346,Fort Macon SP--Beach,hotspot,
L383125,35.3251048,-82.4487126,Four Seasons Marsh,hotspot,
L623561,35.0733668,-80.8322096,Four-mile Creek Greenway,hotspot,
L514993,35.3653958,-80.6219673,Frank Liske Park,hotspot,
L1023295,35.6177444,-77.9201031,Frank Price Church Rd.,hotspot,
L1758090,33.9203341,-78.0193511,Franklin Square Park,hotspot,
L1298764,35.742776,-79.7001028,Franklinville Riverside Park,hotspot,
L1060828,35.7920575,-78.6492348,Fred Fletcher Park,hotspot,
L502848,35.1893821,-80.8450413,Freedom Park,hotspot,
L520301,35.863874,-79.565177,"Freedom Park, Liberty",hotspot,
L1592733,33.801111,-77.946944,Frying Pan Shoals Light Tower,hotspot,
L832472,34.303426,-77.7504212,Futch Creek,hotspot,
L974751,36.441447,-77.5313759,Garysburg Goose Ponds,hotspot,
L1194836,35.1850329,-81.1362219,Gastonia Forestview High School,hotspot,
L1822371,35.7579095,-81.3681613,Geitner Bikeway,hotspot,
L525587,35.7654028,-81.3688083,Geitner-Rotary Park,hotspot,
L451660,36.0290412,-79.9440765,Gibson Park,hotspot,
L1295167,36.1264444,-81.6830965,Glen Burney Tr./New Year Creek,hotspot,
L1244734,35.1396104,-77.0635958,Glenburnie Park,hotspot,
L525591,35.7620778,-81.3555417,Glenn Hilton Memorial Park,hotspot,
L853271,36.0526727,-78.8499284,Glennstone/Heron Rookery,hotspot,
L676457,35.3338228,-77.9952049,Goldsboro Wastewater Treatment Plant,hotspot,
L1137323,35.2677141,-76.6169357,Goose Creek,hotspot,
L835859,35.4710859,-76.9103909,Goose Creek SP,hotspot,
L973810,35.3014669,-76.5947056,Goose Creek Waterfowl Impoundments,hotspot,
L1341755,35.2734577,-76.6111282,Goose Creek--Spring Creek Impoundment,hotspot,
L899199,34.1457304,-78.0714977,Gordon Lewis Road & Boat Ramp,hotspot,
L389216,35.095423,-82.975286,Gorges SP,hotspot,
L1678482,35.0887017,-82.9610012,Gorges SP--Horsepasture River,hotspot,
L899204,34.1396034,-78.0589181,Governors Road,hotspot,
L440334,36.0961724,-81.8315578,Grandfather Mountain,hotspot,
L2313702,36.0934755,-81.8305948,Grandfather Mountain SP--Nature Museum,hotspot,
L655841,36.5077045,-76.4394379,Great Dismal Swamp NWR--Bull Blvd. Ditch,hotspot,
L655537,36.5146031,-76.47892,Great Dismal Swamp NWR--Cross Canal Ditch,hotspot,
L829152,36.5380536,-76.4679337,Great Dismal Swamp NWR--Forest Line Ditch,hotspot,
L859563,36.4389267,-76.5160418,Great Dismal Swamp NWR--Fringe Marsh,hotspot,
L655538,36.471753,-76.4589214,Great Dismal Swamp NWR--Insurance Ditch,hotspot,
L655535,36.5278466,-76.5249252,Great Dismal Swamp NWR--Sherrill Ditch,hotspot,
L846716,36.4728574,-76.4978027,Great Dismal Swamp NWR--Weyerhauser Ditch,hotspot,
L1945539,34.6698262,-77.1570468,Great Neck Hill,hotspot,
L1173110,35.6231517,-83.3961868,Great Smoky Mountains NP --Appalachian Trail (Newfound Gap--Boulevard Tr.,hotspot,
L1566281,35.547728,-83.4915201,Great Smoky Mountains NP--Andrew's Bald Trail,hotspot,
L1279741,35.5605423,-83.7420845,Great Smoky Mountains NP--Appalachian Trail (Russel Field--Spence) ,hotspot,
L1595508,35.5679132,-83.1759868,Great Smoky Mountains NP--Balsam Mountain Campground,hotspot,
L1571983,35.6417513,-83.0572264,Great Smoky Mountains NP--Cataloochee,hotspot,
L787080,35.61084,-83.42509,Great Smoky Mountains NP--Charlie's Bunion Trail,hotspot,
L741761,35.5569312,-83.4961581,Great Smoky Mountains NP--Clingman's Dome,hotspot,
L836767,35.6040677,-83.449831,Great Smoky Mountains NP--Indian Springs Trail,hotspot,
L1640875,35.5882027,-83.3631645,Great Smoky Mountains NP--Kephart Prong Trail,hotspot,
L710760,35.5148322,-83.3026743,Great Smoky Mountains NP--Oconoluftee,hotspot,
L608165,35.5594623,-83.3119011,Great Smoky Mountains NP--Smokemont,hotspot,
L1476109,35.5499041,-83.3085557,Great Smoky Mountains NP--Smokemont Campground,hotspot,
L336895,35.5767609,-83.3619055,"Great Smoky Mountains NP--Swain Co., NC",hotspot,
L1666374,35.7818289,-77.0872879,Green Acres Family Campground,hotspot,
L1519165,35.1435226,-80.9144577,Green Ridge Dr. Marsh,hotspot,
L1741950,35.2746144,-82.3068894,Green River Game Lands--Green River Cove Trail,hotspot,
L506738,34.0890613,-78.2933807,Green Swamp Preserve,hotspot,
L358125,34.2072993,-77.9349732,Greenfield Lake,hotspot,
L357304,34.2137541,-77.9444361,Greenfield Park & Gardens,hotspot,
L393482,36.0901009,-79.8388052,Greensboro Bog Garden,hotspot,
L2346127,36.1272859,-79.8368418,Greensboro Country Park,hotspot,
L1048800,35.6901627,-78.7263536,Greenview Ponds,hotspot,
L792246,35.6264831,-77.361517,Greenville- -River Park North,hotspot,
L1259206,35.5823568,-77.1699858,Grimesland Ponds,hotspot,
L882578,36.1321212,-79.8420238,Guilford Courthouse National Military Park,hotspot,
L1244542,35.4085466,-76.2531424,Gull Rock Gameland,hotspot,
L1855851,35.357878,-76.1103083,Gull Rock Gamelands,hotspot,
L520309,35.9541438,-79.7318602,Hagan Stone Park,hotspot,
L1009313,34.1765182,-77.9075718,Halyburton Park,hotspot,
L2144446,36.0849161,-79.8632884,Hamilton Lakes Park,hotspot,
L446367,34.6345497,-77.1374989,Hammocks Beach SP,hotspot,
L280762,36.3923842,-80.2676319,Hanging Rock SP,hotspot,
L1524991,35.3241048,-78.2720941,Harper House Rd.,hotspot,
L998133,35.5739286,-78.9759429,Harris Lake -- Lower Ramp,hotspot,
L998134,35.6078779,-78.9390818,Harris Lake -- Upper Ramp,hotspot,
L387371,35.627861,-78.9274979,Harris Lake County Park,hotspot,
L1832524,35.5834685,-78.9588363,Harris Lake--Bartley Holleman Rd.,hotspot,
L1356966,35.2286526,-80.6887659,Harrisburg Rd. Park,hotspot,
L1157949,36.091384,-80.3010893,Hathaway Park,hotspot,
L660017,35.2904686,-75.5131531,Hatteras  Island (NCAS),hotspot,
L1329063,35.1874132,-75.7659267,Hatteras Inlet,hotspot,
L2276582,35.2023418,-75.7206488,Hatteras Inlet Peninsual--Sound side,hotspot,
L1192916,35.208571,-75.7029033,Hatteras Marina,hotspot,
L548893,34.9086455,-75.3057861,Hatteras Pelagic--Gulf Stream,hotspot,
L2182016,35.0960915,-75.4074097,Hatteras Pelagic--nearshore waters,hotspot,
L269277,35.1923976,-75.7463244,Hatteras Point,hotspot,
L2200870,34.7691051,-75.1712036,"Hatteras pelagic (deep warm water, 30-50 nmi offshore)",hotspot,
L862669,35.1956965,-75.7676852,Hatteras-Ocracoke Ferry,hotspot,
L998137,35.7762641,-79.1472121,Haw River -- Bynum Dam,hotspot,
L2202612,36.240812,-79.7670507,Haw River SP (Guilford Co.),hotspot,
L470686,36.2525622,-79.7562146,Haw River SP (Rockingham Co),hotspot,
L234178,35.7692029,-79.1385188,Haw Slopes State Natural Area,hotspot,
L1220939,35.5326453,-83.1721687,Heintooga Ridge Rd.,hotspot,
L579849,35.7244963,-78.7843323,Hemlock Bluffs Nature Preserve,hotspot,
L901130,35.950399,-78.500472,Heritage Lake,hotspot,
L984155,35.7566342,-81.3689142,Hickory City Park & Bikeway,hotspot,
L1594292,35.2613459,-80.790448,Hidden Valley Ecological Park,hotspot,
L1345016,36.005474,-79.9423195,High Point Lake,hotspot,
L633377,35.6000287,-80.2341145,High Rock Dam,hotspot,
L900790,35.6550646,-80.2949524,High Rock Lake,hotspot,
L819232,35.6088129,-80.3085566,High Rock Lake--Dutch Second Creek Boat Access,hotspot,
L905132,35.0541612,-83.1881976,Highlands Biological Station,hotspot,
L1211012,34.9388594,-79.749155,Hinson Lake,hotspot,
L450458,35.175719,-79.34417,Hobby Field/Ginnie Fields,hotspot,
L1390808,36.0316965,-80.3052834,Hobby Park,hotspot,
L1016805,35.2484229,-76.5568542,Hobucken 304/33 Marsh,hotspot,
L1841780,35.2026172,-76.5789231,Hobucken Marsh,hotspot,
L1447153,34.9070021,-77.396866,Hoffman Forest,hotspot,
L972559,35.7716211,-78.8162184,Hoffman Lake,hotspot,
L1253314,33.9153982,-78.2418394,Holden Beach,hotspot,
L1609463,33.914051,-78.2694376,Holden Beach Island (south of the canal),hotspot,
L1837850,33.9107651,-78.2965672,Holden Beach--Beachfront,hotspot,
L1608743,33.9130537,-78.3023966,Holden Beach--Marsh 1,hotspot,
L1609461,33.9119141,-78.3205068,Holden Beach--Marsh 2,hotspot,
L1610644,33.9095059,-78.3420528,Holden Beach--Marsh 3,hotspot,
L338409,34.4106822,-77.6589619,Holly Ridge WMA,hotspot,
L469305,34.5484976,-77.8158349,Holly Shelter - Marina,hotspot,
L599981,34.5285507,-77.7418327,"Holly Shelter Game Land--Lodge Rd, WMA",hotspot,
L718180,34.4113,-77.6717091,Holly Shelter Game Land--Lodge Rd. Central,hotspot,
L600057,34.5340129,-77.7144742,Holly Shelter Game Land--T Island Rd,hotspot,
L1335613,35.4668067,-78.4057819,Holts Lake,hotspot,
L1846835,35.9541934,-79.0615465,Homestead Park,hotspot,
L606265,34.7025298,-76.7507029,Hoop Pole Creek  Natural Area,hotspot,
L870227,35.3977086,-82.5444889,Hooper Lane,hotspot,
L1344984,34.9784496,-78.9454843,Hope Mills Lake,hotspot,
L1164172,35.8616087,-78.9840775,Hope Valley Experimental Forest,hotspot,
L1359180,35.9416538,-79.0675413,Horace Williams Tract,hotspot,
L1072309,36.2260482,-80.2318025,Horizons Park,hotspot,
L1341989,35.8838006,-78.5366952,Horseshoe Farm Park,hotspot,
L1884895,36.1441696,-78.8447773,Horton Grove Nature Preserve,hotspot,
L388455,35.3705751,-78.2975006,Howell Woods Env. Learning Center,hotspot,
L1354092,34.2052142,-77.8882895,Hugh MacRae Nature Trail,hotspot,
L2207726,34.2076853,-77.8848696,Hugh MacRae Park,hotspot,
L1532131,34.5165624,-79.285957,I-95 North NC Welcome Center,hotspot,
L1328865,35.3813386,-80.9464073,IBA--Rural Hill Nature Preserve,hotspot,
L998141,36.0236511,-78.9292542,Indian Trail Park,hotspot,
L939344,35.6426759,-82.2564197,Inn on Mill Creek,hotspot,
L1023995,35.7274577,-78.6775589,Inwood Rd.,hotspot,
L1289304,35.0271449,-77.1363643,Island Creek Walk,hotspot,
L733134,35.9105686,-76.1178303,J. Morgan Futch Game Land,hotspot,
L2257273,35.8045002,-78.7006474,J.C. Raulston Arboretum,hotspot,
L207852,35.3217702,-82.4483866,Jackson Park,hotspot,
L1174420,34.7776911,-77.5514832,Jacksonville WTP,hotspot,
L778822,35.1448364,-80.7662916,James Boyce Park,hotspot,
L1334664,34.863807,-78.7273885,Jessups Mill Pond,hotspot,
L302797,35.9619301,-75.6352962,Jockey's Ridge State Park,hotspot,
L1050138,34.2132146,-77.7864314,Johnnie Mercer's Pier,hotspot,
L1479026,35.793289,-81.676333,Johns River Access Area,hotspot,
L930938,35.9947785,-79.049077,Johnston Mill Nature Preserve,hotspot,
L1253780,34.6970257,-77.105999,Jones Island,hotspot,
L1365758,34.678,-78.615,Jones Lake State Park,hotspot,
L340685,35.70646,-79.034371,Jordan Lake,hotspot,
L998157,35.8297971,-78.9637055,Jordan Lake -- 751 Bridge,hotspot,
L864124,35.7954689,-79.0111399,Jordan Lake -- Fearrington Bridge,hotspot,
L691807,35.8198837,-78.9676774,Jordan Lake SRA--Bald Eagle Observation Trail,hotspot,
L691811,35.7988801,-79.0153348,Jordan Lake SRA--Farrington Point,hotspot,
L691812,35.8184743,-79.027909,Jordan Lake SRA--Lystra Rd. Bridge,hotspot,
L722957,35.689788,-79.0510941,Jordan Lake SRA--New Hope Overlook,hotspot,
L811208,35.7236602,-79.0195084,Jordan Lake SRA--Poplar Point,hotspot,
L781676,35.7251931,-79.0344214,Jordan Lake SRA--Seaforth,hotspot,
L988146,35.7913613,-78.999939,Jordan Lake--Audubon Platform,hotspot,
L651593,35.6542495,-79.0678176,Jordan Lake--B. Everett Jordan Dam,hotspot,
L508479,35.8125931,-79.0428543,Jordan Lake--Big Woods Rd.,hotspot,
L619883,35.7081198,-79.0276623,Jordan Lake--Ebenezer Point,hotspot,
L1271011,35.7597282,-78.9835453,Jordan Lake--Horton Pond Rd.,hotspot,
L614775,35.7440741,-79.0084362,Jordan Lake--Marina,hotspot,
L1055084,35.7891682,-79.0058827,Jordan Lake--Marthas Chapel Pulloff,hotspot,
L781675,35.7826407,-79.032957,Jordan Lake--Model Plane Field,hotspot,
L782459,35.8339584,-79.0006256,Jordan Lake--Morgan Creek Mudflats,hotspot,
L453528,35.8524587,-78.975563,Jordan Lake--New Hope Mudflats,hotspot,
L2132359,35.8315577,-78.9529037,Jordan Lake--Northeast Creek Marshes,hotspot,
L798577,35.7435864,-79.0426826,Jordan Lake--Parker's Creek,hotspot,
L1748030,35.64247,-79.084862,Jordan Lake--Poe's Ridge,hotspot,
L1164173,35.7753444,-79.0422406,Jordan Lake--State Educational Forest,hotspot,
L615113,35.7039035,-79.0467569,Jordan Lake--Vista Point,hotspot,
L2334996,35.701458,-82.04662,Jospeh McDowell Historical Catawba Greenway,hotspot,
L738309,35.3781335,-83.9636993,Joyce Kilmer Memorial Forest,hotspot,
L770359,36.1398156,-81.7281961,Julian Price Memorial Park,hotspot,
L1048254,36.1369112,-81.7340927,Julian Price Memorial Park--Price Lake,hotspot,
L1626964,35.7446048,-79.6762535,Kermit G. Pell Water-based Recreation Facility,hotspot,
L1847435,36.0923748,-80.1363975,Kernersville Rd. Vulture Roost Tower,hotspot,
L974407,36.4581547,-78.3620453,Kerr Lake SRA,hotspot,
L1248893,36.534587,-78.3445358,Kerr Lake SRA--Henderson Point,hotspot,
L1543882,36.5352263,-78.3124482,Kerr Lake SRA--Kimball Point,hotspot,
L1043699,35.7612355,-78.7975502,Kildaire Farms Lake,hotspot,
L773347,36.0257787,-75.6649017,Kill Devil Hills Beach,hotspot,
L1347687,35.3854013,-80.984179,Killian Rd. Canoe Access,hotspot,
L1131403,35.320973,-80.7307792,Kirk Field Wetland,hotspot,
L1767780,35.5585546,-80.9625435,Kiser Island Rd. and Causeway,hotspot,
L1060512,36.0652699,-75.6888099,Kitty Hawk Beach,hotspot,
L1063656,36.0552402,-75.69417,Kitty Hawk Windgrass Circle Walking Trail,hotspot,
L1486404,36.0870775,-75.73409,Kitty Hawk Woods Coastal Reserve,hotspot,
L994556,36.0922596,-75.7255733,Kitty Hawk Woods Coastal Reserve--Birch LaneTrail,hotspot,
L994551,36.0643644,-75.72258,Kitty Hawk Woods Coastal Reserve--Paddle Trail,hotspot,
L1500554,36.0757622,-75.7353374,Kitty Hawk Woods Coastal Reserve--Ridge Rd. Access,hotspot,
L836545,36.1378227,-78.7985373,Knapp of Reeds Waterfowl Impoundment,hotspot,
L1793718,35.9974328,-78.9410203,Krzyzewskiville,hotspot,
L487089,33.9973424,-77.9034841,Kure Beach Pier,hotspot,
L791377,33.9747019,-77.9137771,Kure Beach--Public Access,hotspot,
L821557,35.3419447,-80.6800747,LMS--Moorehead Rd Field,hotspot,
L1048261,35.3381919,-82.2039342,Lake Adger,hotspot,
L683804,35.6663618,-78.6353302,Lake Benson,hotspot,
L1471163,35.8559929,-78.8834274,Lake Betz,hotspot,
L1257632,36.1482716,-79.8540401,Lake Brandt--Horsepasture Creek Mudflats,hotspot,
L818538,36.1677966,-79.8382151,Lake Brandt--Marina,hotspot,
L2119035,36.1929969,-79.4065619,Lake Cammack--Boat Launch,hotspot,
L1174386,35.0102657,-83.7883072,Lake Chatuge,hotspot,
L303621,35.8419736,-78.7977126,Lake Crabtree County Park,hotspot,
L2205740,35.8332876,-78.8107185,Lake Crabtree Nature Trail--Southport Entrance,hotspot,
L2317765,36.0796648,-79.807654,Lake Daniel Park,hotspot,
L1233922,36.5170128,-77.9867935,Lake Gaston,hotspot,
L1795726,36.5035076,-77.8116989,Lake Gaston--Dam,hotspot,
L231610,35.8150988,-81.2305069,Lake Hickory - Dusty Ridge Access Area,hotspot,
L231605,35.8188434,-81.1959991,Lake Hickory - Oxford Access Area,hotspot,
L638647,35.8038922,-81.3041496,Lake Hickory--Cat-Ax River Bridge,hotspot,
L1335130,35.7965431,-81.3474983,Lake Hickory--Lovelady Access Area,hotspot,
L1646388,35.8269719,-81.2040683,Lake Hickory--Taylorsville Beach Marina,hotspot,
L1336855,35.8041037,-81.3113564,Lake Hickory--Wittenburg Access,hotspot,
L1049595,36.1678901,-79.8843813,Lake Higgins,hotspot,
L435309,35.7250886,-81.9872332,Lake James Inlet,hotspot,
L1048817,35.7547318,-81.8850517,Lake James SP,hotspot,
L1491619,35.740209,-81.884109,Lake James SP--Canal Bridge Access Area,hotspot,
L1657683,35.7312852,-81.9030398,Lake James SP--Catawba River Area,hotspot,
L1491681,35.750829,-81.892505,Lake James SP--Paddy's Creek Access,hotspot,
L715946,35.7593811,-78.7167192,Lake Johnson Park,hotspot,
L140554,35.4794464,-82.538002,Lake Julian Park,hotspot,
L248876,35.5278203,-82.9753536,Lake Junaluska,hotspot,
L1276826,35.689221,-82.5698519,Lake Louise,hotspot,
L1029548,35.735087,-79.8778152,Lake Lucas,hotspot,
L499843,35.4338199,-82.2285461,Lake Lure,hotspot,
L616540,35.8775063,-78.6973,Lake Lynn,hotspot,
L992423,35.8878766,-78.6984801,Lake Lynn Park,hotspot,
L521974,36.0416039,-79.5257378,Lake Mackintosh,hotspot,
L190061,35.459785,-76.19871,Lake Mattamuskeet NWR,hotspot,
L853905,35.4677306,-76.1759377,Lake Mattamuskeet NWR--Canal Road,hotspot,
L365516,35.486973,-76.21377,Lake Mattamuskeet NWR--Causeway,hotspot,
L1419876,35.4569621,-76.1950838,Lake Mattamuskeet NWR--Headquarters Rd,hotspot,
L791929,35.5053302,-76.0678768,Lake Mattamuskeet NWR--Lake Landing Impoundments,hotspot,
L1419919,35.4524568,-76.1765195,Lake Mattamuskeet NWR--New Holland Walking Trail,hotspot,
L2092530,35.4784252,-76.1231518,Lake Mattamuskeet NWR--Wildlife Dr. East End Pond,hotspot,
L195402,35.468361,-76.1490664,Lake Mattamuskeet NWR--Wildlife Drive,hotspot,
L1419888,35.4513853,-76.1998865,Lake Mattamuskeet NWR--Wildlife Drive West,hotspot,
L1346852,35.4761937,-76.3267511,Lake Mattamuskeet--Rose Bay Canal,hotspot,
L964127,33.8886219,-78.5288465,Lake Medcalf,hotspot,
L1350975,36.15896,-78.8258619,Lake Michie,hotspot,
L503273,35.4858337,-80.9355927,Lake Norman (Mecklenburg Co.),hotspot,
L1446443,35.6678622,-80.9403648,Lake Norman SP,hotspot,
L1244553,35.4357314,-80.9584122,Lake Norman--Cowans Ford Dam,hotspot,
L1335159,35.5123353,-80.858173,Lake Norman--Davidson Creek,hotspot,
L1363696,35.4366577,-80.947565,Lake Norman--Energy Explorium viewing area,hotspot,
L1621039,35.5834341,-81.0024955,Lake Norman--Mountain Creek arm,hotspot,
L998144,36.1512379,-79.1484003,Lake Orange,hotspot,
L1287709,35.4824091,-82.6256418,Lake Powhatan,hotspot,
L876033,35.7667941,-78.6778808,Lake Raleigh,hotspot,
L1244588,35.7727469,-81.4405975,Lake Rhodhiss,hotspot,
L1336097,35.7840963,-81.483838,Lake Rhodhiss--Conley Creek Access Area,hotspot,
L1452874,35.7747038,-81.4377953,Lake Rhodhiss--Lakeside Park/Tater Hole Access Area,hotspot,
L1238652,35.2259008,-82.4164295,Lake Summit,hotspot,
L1174469,35.2337929,-79.1896706,Lake Surf,hotspot,
L358122,34.2956752,-77.98998,Lake Sutton,hotspot,
L1048201,35.7256391,-82.0843935,Lake Tahoma,hotspot,
L1174437,35.2318369,-80.0873337,Lake Tillery,hotspot,
L612338,35.620701,-82.3292685,Lake Tomahawk,hotspot,
L616215,36.1667399,-79.7755265,Lake Townsend,hotspot,
L1347251,36.1752245,-79.8071663,Lake Townsend--Plainfield Marsh,hotspot,
L1359217,36.1942823,-79.7640045,Lake Townsend--Yanceyville Rd. marsh,hotspot,
L1243042,35.1339952,-82.9392757,Lake Toxaway,hotspot,
L1403498,35.0349442,-80.4822617,Lake Twitty,hotspot,
L713961,34.2904101,-78.5098457,Lake Waccamaw SP,hotspot,
L974269,35.1496701,-82.7670479,Lake Wanteska,hotspot,
L420806,35.694774,-78.696899,Lake Wheeler,hotspot,
L998145,35.7022234,-78.7274137,Lake Wheeler marshes,hotspot,
L1756136,35.7955279,-77.9279497,Lake Wilson,hotspot,
L502669,35.2082139,-80.8476162,Latta Park,hotspot,
L480399,35.3557362,-80.9093285,Latta Plantation Nature Preserve,hotspot,
L499411,35.8296092,-78.6967313,Laurel Hill Park,hotspot,
L1356910,35.1019388,-77.053578,Lawson Creek Park,hotspot,
L1065844,34.3258023,-77.6832361,Lea Island,hotspot,
L928659,34.1238844,-78.0358028,Lee Bucks Rd.,hotspot,
L1847425,35.9226774,-78.9827785,Leigh Farm Park,hotspot,
L987413,35.9428527,-81.5220201,Lenoir Greenway--Zacks Fork Access,hotspot,
L998147,35.9803226,-78.740019,Lick Creek Waterfowl Impoundment,hotspot,
L1048178,35.0607322,-77.0619035,Lilliput Pond,hotspot,
L1527480,36.0412016,-78.666029,Little Beaverdam Creek,hotspot,
L2166405,35.9185105,-79.0124059,Little Creek (Durham),hotspot,
L872669,35.9067798,-78.9983511,Little Creek Waterfowl Impoundment,hotspot,
L998151,36.1622254,-78.9712898,Little River Regional Park,hotspot,
L998149,36.0849057,-78.8501397,Little River Waterfowl Impoundment,hotspot,
L1023934,35.1945726,-83.3847928,Little Tennessee River Greenway,hotspot,
L2120269,35.1590166,-83.383162,Little Tennessee River Greenway--Macon County Library,hotspot,
L686419,33.9310941,-78.2207894,Lockwood Folly River,hotspot,
L2145792,33.9015884,-78.0828381,Long Beach pier,hotspot,
L1233931,35.7648124,-81.0858822,Lookout Shoals Lake,hotspot,
L472628,35.757901,-81.0962355,Lookout Shoals Lake Access (Catawba Co.),hotspot,
L682876,36.145014,-81.1905098,Lowe's Park at River's Edge,hotspot,
L713786,35.7309763,-79.1059828,Lower Haw State Natural Area,hotspot,
L596014,35.0734722,-80.8405244,Lower McAlpine Creek Greenway,hotspot,
L1254497,34.418428,-78.9710999,Lumber River SP,hotspot,
L1259248,34.618303,-79.12714,Lumber River SP--John Culbreth,hotspot,
L1259242,34.4688822,-78.956337,Lumber River SP--Piney Island,hotspot,
L2164719,34.9053608,-79.357338,Lumber River--Chalk Banks,hotspot,
L2164740,34.3139498,-79.0373611,Lumber River--Fair Bluff boardwalk,hotspot,
L1667608,34.6109598,-79.0624237,Lumberton Municipal Airport (restricted access),hotspot,
L2330326,35.748724,-78.7477255,Macedonia Lake/Speight Branch Greenway,hotspot,
L302859,36.5170859,-75.9569081,Mackay Island NWR,hotspot,
L775773,36.5389156,-75.9633136,Mackay Island NWR--Charles Kuralt Overlook,hotspot,
L775771,36.5352261,-75.9378433,Mackay Island NWR--Great Marsh Trail,hotspot,
L1106144,36.4301223,-81.6690159,Mahala Rd.,hotspot,
L90,36.450001,-81.099998,Mahogany Rock Mountain,hotspot,
L581630,35.3251048,-80.7602835,Mallard Creek and Clark's Creek Greenway,hotspot,
L265080,35.9123733,-75.7713154,"Manns Harbor, NC",hotspot,
L1907950,35.9088475,-75.6689355,Manteo Waterfront,hotspot,
L779298,34.6817817,-77.7282715,Maple Hill--Rte. 50W,hotspot,
L1356895,36.5131912,-75.9112767,Martin Orchards and Vineyard,hotspot,
L331344,35.8849444,-79.0145083,Mason Farm Biological Preserve,hotspot,
L1416458,35.8873403,-79.0110601,Mason Farm Biological Reserve (Durham Co.),hotspot,
L600062,34.2371024,-77.7735901,Mason Inlet Waterbird Management Area,hotspot,
L1310963,34.1680678,-77.8244019,Masonboro Island--NERR (Main Island),hotspot,
L514553,34.1992,-77.8102,Masonboro Island--NERR (North Island),hotspot,
L523302,35.6884112,-82.9421639,Max Patch Rd.,hotspot,
L1522247,36.4310525,-79.9507495,Mayo River SP,hotspot,
L594684,35.1508807,-80.740993,McAlpine Creek Park,hotspot,
L581886,35.0633738,-80.8732367,McAlpine Wastewater Treatment Ponds,hotspot,
L1231590,35.4500079,-80.8782899,McDowell Creek Greenway,hotspot,
L1105761,35.1024256,-81.0252857,McDowell Nature Preserve,hotspot,
L764042,35.1192021,-81.0088652,McDowell Prairie,hotspot,
L974463,35.0091901,-79.6288204,McKinney Lake Fish Hatchery,hotspot,
L902772,36.2637743,-81.6294909,Meat Camp Creek Environmental Studies Area,hotspot,
L602221,36.2638348,-77.8883886,Medoc Mountain State Park,hotspot,
L417829,36.433437,-76.683712,Merchants Millpond SP,hotspot,
L1263899,35.7250538,-78.6936951,Mid Pines Rd.,hotspot,
L492004,35.525,-78.4833333,Middle Creek Bottomlands II,hotspot,
L386545,36.0862513,-80.2836013,Miller Park,hotspot,
L1194426,34.1318597,-77.8702743,Millet Marsh Feeder,hotspot,
L2327984,35.383452,-82.5487804,Mills River Park,hotspot,
L1804312,35.3776918,-82.5450236,Mills River WTP,hotspot,
L998154,35.9195844,-78.3879533,Mitchell Mill Natural Area,hotspot,
L1283264,35.3726526,-83.2446957,Monteith Farmstead Park,hotspot,
L1448401,34.4601421,-78.1118692,Moore's Creek National Battlefield,hotspot,
L1833271,35.482844,-80.7315731,Mooresville Road--Farm Pond,hotspot,
L1495500,35.861039,-77.0436894,Moratoc Park (Williamston),hotspot,
L1202875,35.8942999,-79.0633464,Morgan Creek,hotspot,
L808710,35.7406954,-81.7162228,Morganton Greenway,hotspot,
L1270849,34.469534,-77.5087675,Morris Landing,hotspot,
L515422,35.3737245,-80.0733483,Morrow Mountain SP,hotspot,
L452592,36.1478557,-81.7101288,Moses H. Cone Memorial Park,hotspot,
L472179,36.1404394,-81.6820621,Moses H. Cone Memorial Park--Bass Lake,hotspot,
L465110,35.4337194,-80.748648,Moss Creek Nature Trail,hotspot,
L613248,35.7649006,-82.2697449,Mount Mitchell SP,hotspot,
L91,35.433334,-82.716667,Mount Pisgah,hotspot,
L2142308,36.1615082,-78.9068127,Mountain Creek bridge,hotspot,
L1833974,35.3519968,-80.9697112,Mountain Island Lake,hotspot,
L976879,35.2981746,-76.501193,Mouse Harbor,hotspot,
L1457216,36.4005419,-81.4623967,Mt. Jefferson SP,hotspot,
L557006,35.4032181,-82.7541304,Mt. Pisgah Inn,hotspot,
L434074,36.1020991,-80.3603554,Muddy Creek Greenway,hotspot,
L1648738,35.9954488,-80.3321972,Muddy Creek WTP,hotspot,
L1094122,36.4496287,-77.0831895,Murfreesboro Water Treatment Plant--Meherrin River Landing,hotspot,
L1098383,35.7650933,-81.3313459,NC 127N Cell Tower,hotspot,
L974740,35.7264474,-78.6827946,NCSU Experimental Farm,hotspot,
L247384,36.2007021,-78.8877078,NCSU Hill Forest,hotspot,
L477777,35.9733176,-75.6311703,Nag's Head Pier,hotspot,
L1907928,35.8985064,-75.61409,Nags Head Causeway,hotspot,
L1914924,35.8985064,-75.61409,Nags Head Causeway,hotspot,
L593592,35.991341,-75.6546021,Nags Head Outer Banks,hotspot,
L497070,35.9894485,-75.6655669,Nags Head Woods Ecological Preserve,hotspot,
L1398808,35.9177962,-75.597984,Nags Head--Jennette's Pier,hotspot,
L926509,35.0859,-83.2171,Nantahala NF--Flat Mt. Ranger Station,hotspot,
L738244,35.1638101,-83.6098194,Nantahala NF--Forest Service Road #711,hotspot,
L1468544,35.2286698,-83.3907795,Nantahala NF--Gibson Bottoms,hotspot,
L857360,35.1522492,-84.1804862,Nantahala NF--Hiwassee Dam,hotspot,
L836069,35.0725941,-83.5308552,Nantahala NF--Standing Indian Campground,hotspot,
L1599576,35.3372219,-84.0252949,Nantahala NF--Stratton Gap,hotspot,
L934024,35.0522027,-83.153801,Nantahala NF--Whitesides,hotspot,
L1117771,35.3098022,-83.5185814,Needmore Gamelands,hotspot,
L893135,35.7940069,-78.540616,Neuse Greenway,hotspot,
L1280711,35.7756949,-78.5398221,Neuse Greenway--Anderson Point,hotspot,
L1123607,35.0840258,-77.0265841,Neuse River--James City Pilings,hotspot,
L610800,34.8510255,-76.3213348,New Drum Inlet Shoals,hotspot,
L1244703,34.8913755,-76.2861786,New Dump Island,hotspot,
L338056,35.9181088,-78.9708266,New Hope Waterfowl Impoundment,hotspot,
L1970890,34.5274249,-77.3439217,New River Inlet,hotspot,
L805361,34.529576,-77.3440719,New River Inlet,hotspot,
L712753,36.5587393,-81.3235474,New River SP--Alleghany Access,hotspot,
L445536,36.4735,-81.337007,New River SP--US221 Access,hotspot,
L474821,36.4159642,-81.3868904,New River SP--Wagoner Access/Bill Bledsoe Rd.,hotspot,
L1853001,34.7456387,-76.6593563,Newport River--Wading Creek area,hotspot,
L1332140,35.6678118,-81.2315877,Newton Greenway,hotspot,
L971811,35.7521198,-79.8127127,North Asheboro Park,hotspot,
L856588,35.9001881,-79.03245,North Carolina Botanical Garden,hotspot,
L874505,35.5383726,-77.0519578,North Carolina Estuarium,hotspot,
L730906,36.0312197,-78.8976502,North Carolina Museum of Life and Science,hotspot,
L1083767,34.5376012,-79.2348361,North Carolina Welcome Center (Northbound I-95),hotspot,
L971809,35.6363718,-79.7538757,North Carolina Zoological Park,hotspot,
L1023805,34.7672108,-76.5368986,North River Farms (permission required),hotspot,
L1137098,34.7612351,-76.629467,North River Golf Club (Restricted),hotspot,
L786240,34.797735,-76.6238022,North River Marsh,hotspot,
L529457,34.4431587,-77.5222778,North Topsail Island,hotspot,
L487457,35.9087959,-78.5798836,North Wake Sanitary Landfill (capped),hotspot,
L1275305,36.1842663,-80.3071404,Northwest Middle School (Winston-Salem),hotspot,
L998160,35.8568344,-78.9390603,O'Kelly Chapel Road Waterfowl Impoundment,hotspot,
L1797599,36.0173725,-79.9942307,Oak Hollow Lake,hotspot,
L1174403,33.9186627,-78.1713409,Oak Island,hotspot,
L858194,34.2443752,-77.9316607,Oakdale Cemetery,hotspot,
L1621044,34.4724029,-78.3923275,Oakland Plantation Turf Farm,hotspot,
L660714,36.0634972,-79.1147804,Occoneechee Mt. State Natural Area,hotspot,
L974483,36.3342455,-77.5654078,Occoneechee Neck,hotspot,
L998131,36.0706467,-79.0848561,Occoneechee Speedway Trail,hotspot,
L784728,33.8914125,-78.4276199,Ocean Isle Beach,hotspot,
L1033621,33.9184526,-78.4486699,Ocean Isle Beach Wastewater Reclamation Facility,hotspot,
L1134271,35.4869345,-83.3223724,Oconaluftee Botanical Gardens and Village,hotspot,
L976885,35.0682212,-76.0264206,Ocracoke Inlet,hotspot,
L524900,35.1423711,-75.8770752,Ocracoke Island,hotspot,
L1160919,35.1277712,-75.9229088,Ocracoke Island--Hammock Hills Nature Trail,hotspot,
L557026,35.1881194,-75.7788849,Ocracoke Island--North End,hotspot,
L1580485,35.1870848,-75.7799316,Ocracoke Island--North Point Pond,hotspot,
L1049675,35.1485264,-75.8714452,Ocracoke Island--Pony Pasture,hotspot,
L732201,35.1121856,-75.9841919,Ocracoke Island--Silver Lake,hotspot,
L557028,35.096878,-75.9785271,Ocracoke Island--South Pt. Rd.,hotspot,
L1782391,35.772233,-79.1444457,Old Bynum Bridge,hotspot,
L1835908,36.1249461,-80.095467,Old Kernersville Lake Park,hotspot,
L1413664,36.0902084,-78.8404765,Old Oxford Rd. pond,hotspot,
L1087258,33.9253434,-78.0182397,Old Smithville Burying Ground,hotspot,
L927738,34.0213374,-78.0282283,Olde Brunswick Store Trail,hotspot,
L1137884,34.2070464,-77.8307319,Oleander Memorial Gardens,hotspot,
L1021743,35.9759051,-80.841254,Olin I-77 Rest Area,hotspot,
L2251199,34.4608333,-77.485,Onslow Co. Public Beach Access #2,hotspot,
L1023623,34.9096544,-76.5571976,Open Grounds Farm,hotspot,
L868995,34.2135944,-77.9466999,Optimist Park Fields,hotspot,
L1404072,35.7764242,-75.5338684,Oregon Inlet,hotspot,
L477775,35.795086,-75.548172,Oregon Inlet Marina,hotspot,
L267423,35.8893,-74.6963,Oregon Inlet pelagic,hotspot,
L752788,34.1416458,-77.9679108,Orton Plantation and Gardens,hotspot,
L927729,34.0544728,-77.9597139,Orton Pond,hotspot,
L208295,35.294094,-82.4764237,Oseola Lake,hotspot,
L973806,34.7525439,-76.5806293,Otway Waterfowl Impoundments,hotspot,
L865336,36.0108529,-75.6633675,Outer Banks Arboretum,hotspot,
L251611,35.56476,-75.46551,Outer Banks of NC,hotspot,
L1172925,36.1103598,-81.3078296,Overmountain Victory Trail--Marley Ford Area,hotspot,
L1194645,35.9827292,-76.1201477,Palmetto Peartree Preserve,hotspot,
L973797,35.311203,-76.4861298,Pamlico Point,hotspot,
L1799162,35.3771941,-76.7483397,Pamlico River Ferry Terminal--south side,hotspot,
L614830,35.1940115,-76.1517334,Pamlico Sound--SwanQuarter/Ocracoke Ferry,hotspot,
L880829,36.4365445,-76.9534564,Parker's Ferry,hotspot,
L998164,36.0061871,-78.7877837,Patterson Road Waterfowl Impoundment,hotspot,
L190286,35.66591,-75.4799,Pea Island NWR,hotspot,
L459177,35.75,-75.5166667,Pea Island NWR--CGS-boiler (NCAM),hotspot,
L557170,35.7097924,-75.4919529,Pea Island NWR--New Field Pond,hotspot,
L130800,35.7175756,-75.4985794,Pea Island NWR--North Pond,hotspot,
L1663502,35.7156212,-75.4935891,Pea Island NWR--North Pond Wildlife Trail,hotspot,
L210417,35.767247,-75.522541,Pea Island NWR--Old Coast Guard Station,hotspot,
L988995,35.766015,-75.5257702,Pea Island NWR--Old Ferry Landing,hotspot,
L612908,35.7375952,-75.5145264,Pea Island NWR--Ramp 6-8 (NCAO),hotspot,
L792647,35.7423325,-75.5069733,Pea Island NWR--Salt Flats,hotspot,
L1555375,35.7355509,-75.5053226,Pea Island NWR--Salt Flats Wildlife Trail,hotspot,
L365394,35.693971,-75.485696,Pea Island NWR--South Pond,hotspot,
L1421531,35.7189502,-75.4928717,Pea Island NWR--Visitor Center Beach Crossover,hotspot,
L459174,35.7172942,-75.4921849,Pea Island NWR--ramp 6 (NCAN),hotspot,
L358792,35.0797413,-80.0920486,Pee Dee NWR,hotspot,
L999354,35.0950521,-80.0199723,Pee Dee NWR--Andrews Pond,hotspot,
L630111,35.0770546,-80.0397778,Pee Dee NWR--Arrowhead Lake,hotspot,
L1788650,35.0773989,-80.049584,Pee Dee NWR--Big Oak Rd.,hotspot,
L1317709,35.0969787,-80.0449491,Pee Dee NWR--Bottomlands,hotspot,
L982134,35.0786262,-80.0360012,Pee Dee NWR--Ringneck,hotspot,
L1788657,35.0604491,-80.0897528,Pee Dee NWR--Wildlife Dr.,hotspot,
L1778503,35.9426924,-82.11599,Penland School of Crafts,hotspot,
L998165,36.0732309,-78.8632075,Penny's Bend Nature Preserve,hotspot,
L1485189,34.466181,-77.4988867,Permuda Island State Reserve,hotspot,
L1672535,35.7896,-76.4113712,Pettigrew SP--Boat Ramp,hotspot,
L1211082,35.7865082,-76.518665,Pettigrew SP--Cypress Point,hotspot,
L189725,35.8068158,-76.451879,Pettigrew State Park,hotspot,
L805113,36.0010975,-79.9547625,Piedmont Environmental Center,hotspot,
L977726,35.5728675,-81.2490892,Piedmont Turf Grass,hotspot,
L450683,36.3405719,-80.4772568,Pilot Mountain SP--Mountain,hotspot,
L450685,36.2605734,-80.499959,Pilot Mountain SP--Yadkin River,hotspot,
L71303,36.342222,-80.478611,Pilot Mountain State Park,hotspot,
L860027,36.2615078,-75.7911479,Pine Island Audubon Sanctuary and Center,hotspot,
L1366655,34.7003467,-76.8294842,Pine Knoll Shores Aquarium,hotspot,
L2053308,36.0325812,-79.8423243,Pinecroft Lake Park,hotspot,
L383885,35.201376,-79.471364,Pinehurst Greenway,hotspot,
L1048236,35.1678306,-79.4902468,Pinehurst Lake,hotspot,
L971810,35.542048,-79.8938119,Pisgah Covered Bridge,hotspot,
L526579,35.2938313,-82.7268791,Pisgah NF-- Davidson Ranger District,hotspot,
L920082,36.1172156,-82.3328304,Pisgah NF--Beauty Spot,hotspot,
L925410,35.4998102,-82.6391602,Pisgah NF--Bent Creek,hotspot,
L938777,35.9909937,-82.4874973,Pisgah NF--Big Bald,hotspot,
L1756770,36.1067093,-82.0269235,Pisgah NF--Big Yellow Mountain Preserve,hotspot,
L1293316,35.8039526,-82.2036982,Pisgah NF--Carolina Hemlocks Recreation Area,hotspot,
L1779333,35.3495504,-82.7783218,Pisgah NF--Cradle of Forestry,hotspot,
L737915,35.68851,-82.1981,Pisgah NF--Curtis Creek Campground,hotspot,
L1514251,35.7181297,-82.1874644,Pisgah NF--Curtis Creek Rd.,hotspot,
L1770903,36.009814,-81.808243,Pisgah NF--Darkside Cliffs,hotspot,
L326002,35.3937723,-82.7744552,Pisgah NF--Frying Pan Trail,hotspot,
L1768652,35.91248,-81.884794,Pisgah NF--Hawksbill Mountain,hotspot,
L956051,36.0116166,-81.8357527,Pisgah NF--Little Lost Cove Cliffs,hotspot,
L1479994,35.3038155,-82.7945179,Pisgah NF--Looking Glass Rock,hotspot,
L1712604,35.8030083,-82.9587485,Pisgah NF--Max Patch Mountain,hotspot,
L960076,35.4027809,-82.7565336,Pisgah NF--Mount Pisgah Campground,hotspot,
L326006,35.4255556,-82.7569444,Pisgah NF--Mt. Pisgah,hotspot,
L511992,35.4978798,-82.6082611,Pisgah NF--N. C. Arboretum,hotspot,
L1002012,35.4961285,-82.6097095,Pisgah NF--N.C. Arboretum(EcoLab Birding Station),hotspot,
L721651,35.362596,-82.7785492,Pisgah NF--Pink Beds,hotspot,
L1248691,35.2841888,-82.79284,Pisgah NF--Pisgah Center for Wildlife Education,hotspot,
L934678,36.1028619,-82.1331882,Pisgah NF--Rhododendron Gardens & Cloudland Trail,hotspot,
L792687,36.1007121,-82.1083832,Pisgah NF--Roan Mountain,hotspot,
L1408237,36.1073978,-82.1046786,Pisgah NF--Round Bald,hotspot,
L2188085,35.327931,-82.894252,Pisgah NF--Sam Knob Trail,hotspot,
L738332,35.3265754,-82.8928328,Pisgah NF--Shining Rock Wilderness,hotspot,
L956088,35.8866771,-81.8847084,Pisgah NF--Table Rock,hotspot,
L942001,35.9030082,-81.907239,Pisgah NF--Wiseman's View,hotspot,
L685616,34.3105469,-77.7488708,Plantation Village,hotspot,
L198986,35.8193499,-76.5170802,Pocosin Lakes NWR,hotspot,
L1060122,35.6840715,-76.5431213,Pocosin Lakes NWR (Hyde Co),hotspot,
L986373,35.9146352,-76.2557602,Pocosin Lakes NWR--Columbia,hotspot,
L1978687,35.6932386,-76.5421343,Pocosin Lakes NWR--Pungo Lake Unit (Observation Tower area),hotspot,
L974409,35.7066562,-76.5659523,Pocosin Lakes NWR--Pungo Unit,hotspot,
L1339814,35.7845451,-76.5213081,Pocosin Lakes NWR--Shore Dr. Sparrow Fields,hotspot,
L2101185,34.3207198,-77.7654791,Poplar Grove Plantation,hotspot,
L998167,35.7141272,-79.0079942,Poplar Point Wastewater Ponds,hotspot,
L1481986,35.8124519,-78.7107183,Prairie Ridge Ecostation Bird Feeders,hotspot,
L579187,35.8125931,-78.711462,Prairie Ridge Ecostation for Wildlife Learning,hotspot,
L1836675,36.1042366,-79.8786331,Price Park (Greensboro),hotspot,
L998169,36.195636,-78.9064629,Quail Roost,hotspot,
L1324243,36.1040223,-79.3260956,Quaker Creek Reservoir,hotspot,
L1249754,35.3739812,-78.0745125,Quaker Neck Lake,hotspot,
L1117806,35.2842332,-83.4702158,Queen Branch,hotspot,
L899138,34.7131841,-76.6688633,Rachel Carson National Estuarine Sanctuary,hotspot,
L1273924,34.7095153,-76.6742277,Rachel Carson National Estuarine Sanctuary--Bird Shoals,hotspot,
L1919548,35.8694515,-76.7454404,Rail Switch Nature Trail,hotspot,
L1002792,35.6430726,-82.2909987,Rainbow Road Trail,hotspot,
L1848608,35.9205059,-79.0233267,Rainbow Soccer Complex,hotspot,
L1067577,35.8835359,-78.7845495,Raleigh-Durham Airport Observation Deck,hotspot,
L1035236,35.8500447,-79.8296599,Randleman Lake,hotspot,
L816731,35.2927804,-81.1976337,Rankin Lake and Spillway,hotspot,
L963186,36.4736166,-80.8415222,Raven Knob Park Lake,hotspot,
L357287,35.46067,-78.9065552,Raven Rock SP,hotspot,
L594688,35.267241,-80.7169604,Reedy Creek Nature Preserve,hotspot,
L671486,35.1714086,-80.9044589,Renaissance Park,hotspot,
L1233926,36.2160252,-81.2864685,Rendezvous Mountain Educational SF,hotspot,
L2166018,35.213789,-79.4043732,Reservoir Park,hotspot,
L387894,36.1266446,-80.2826786,Reynolda,hotspot,
L1764992,35.2290901,-78.6500551,Rhodes Pond,hotspot,
L517005,35.2941115,-80.8195496,RibbonWalk Nature Preserve,hotspot,
L1739739,35.9216078,-82.8004061,Rich Mountain Tower,hotspot,
L633727,35.4786698,-80.2597618,Richfield Park,hotspot,
L1243051,35.3705285,-82.9920359,Richland Balsam,hotspot,
L998188,35.7286718,-78.7839122,Ritter Park,hotspot,
L1770577,35.1654745,-78.8124468,River Rd. (Game Rd. area),hotspot,
L1228367,34.0716266,-77.9208326,River Rd. Marshes (New Hanover Co.),hotspot,
L1899897,34.1586867,-77.9380044,River Road Bridge,hotspot,
L1899894,34.1144549,-77.9238182,River Road Park,hotspot,
L165194,35.818417,-81.185905,Riverbend Park,hotspot,
L786127,36.4328846,-77.6026154,Roanoke Canal Trail (Lower),hotspot,
L1149304,36.4767569,-77.6672029,Roanoke Canal Trail (Upper),hotspot,
L1907955,35.9112095,-75.6665322,Roanoke Island Festival Park,hotspot,
L450423,35.8775063,-75.6468773,Roanoke Island Marsh Game Land,hotspot,
L791351,35.8922487,-75.6600952,Roanoke Island--Central,hotspot,
L1279912,35.9387527,-75.7137394,Roanoke Island--Elizabethan Gardens,hotspot,
L365555,35.937731,-75.709807,Roanoke Island--Fort Raleigh NHS,hotspot,
L365553,35.93602,-75.69852,Roanoke Island--Morrison Grove,hotspot,
L989018,35.9324287,-75.7218933,Roanoke Island--North End,hotspot,
L1048804,36.4822021,-77.6925316,Roanoke Rapids Lake,hotspot,
L1741098,36.5006165,-77.7779294,Roanoke Rapids Lake--Vultare access,hotspot,
L1030245,35.8996189,-77.0230865,Roanoke River NWR,hotspot,
L1549028,36.3081003,-77.4942518,Roanoke River Partners Tillery Campsite,hotspot,
L1549038,36.2087302,-77.3826751,Roanoke River--Highway 258 bridge,hotspot,
L1341952,34.2321565,-77.936836,Robert Strange Fields,hotspot,
L1303201,35.7802472,-78.6684716,Rocky Branch Greenway,hotspot,
L1562954,35.9636786,-81.1192581,Rocky Face Mountain Recreational Area,hotspot,
L788110,35.8592831,-76.6524696,Roper Catfish Ponds,hotspot,
L1657514,36.4274588,-79.0156778,Roxboro City Lake,hotspot,
L519660,35.3837319,-80.9473085,Rural Hill Farm,hotspot,
L385792,36.096551,-80.1878357,Salem Lake,hotspot,
L836737,35.7560509,-78.8482359,Salem Pond Park,hotspot,
L493157,35.6783546,-80.4635239,Salisbury City Park,hotspot,
L880836,36.4703726,-76.9211197,Sand Banks,hotspot,
L997389,35.2265506,-79.3899536,Sandhills Community College Arboretum,hotspot,
L639359,35.0135486,-79.544363,Sandhills Game Land,hotspot,
L721403,35.0778448,-79.6067619,Sandhills Game Land--Block A,hotspot,
L2068553,34.9900661,-79.4857407,Sandhills Game Land--Block B,hotspot,
L971411,35.9681599,-78.9675164,Sandy Creek Park,hotspot,
L469499,35.7213955,-82.6674414,Sandy Mush Game Land,hotspot,
L851163,35.7236689,-82.6628548,Sandy Mush Game Land--Cedar Hill Road #3,hotspot,
L464520,35.719575,-82.6712394,Sandy Mush Game Land--Martin Candler fields,hotspot,
L464524,35.7049051,-82.6695013,Sandy Mush Game Land--Turkey Creek,hotspot,
L1474455,36.0725753,-75.7189354,Sandy Run Park,hotspot,
L1048183,35.3582002,-83.8634706,Santeetlah Lake,hotspot,
L513490,36.0018179,-78.9334899,Sarah P. Duke Gardens,hotspot,
L1252816,36.4495021,-78.37286,Satterwhite SRA--Satterwhite Point,hotspot,
L1318417,35.9486154,-79.3238854,Saxapahaw Lake,hotspot,
L2140885,35.9460795,-79.3196046,Saxaphaw River Loop Trail,hotspot,
L654314,35.8189963,-78.7266111,Schenck Forest,hotspot,
L2042618,35.2530578,-81.1574972,Schiele Museum of Natural History,hotspot,
L1549027,36.1468309,-77.4170937,Scotland Neck Cemetery,hotspot,
L834157,35.8881461,-76.3336945,Scuppernong River SP--Simmons Landing,hotspot,
L1762713,35.1985851,-80.858024,Sedgefield Park,hotspot,
L903243,36.4107578,-81.6525257,Shady Grove Gardens at the Peak,hotspot,
L1472874,36.1015598,-80.3103202,Shaffner Park,hotspot,
L1050826,33.9019945,-78.3825073,Shallotte Inlet,hotspot,
L1239544,33.936149,-78.3659935,Shallotte River,hotspot,
L1048971,36.1138181,-80.420351,Shallowford Lakes,hotspot,
L998189,35.6499524,-78.9261181,Shearon Harris Visitor's Center,hotspot,
L882613,35.8597352,-78.6626673,Shelley Lake,hotspot,
L581889,35.2377679,-80.6378889,Sherman Branch Park,hotspot,
L880823,36.4021144,-76.9294453,Shoups Landing,hotspot,
L1679084,35.892426,-82.8176906,Silvermine Trailhead,hotspot,
L1292544,34.5824151,-78.4532404,Singletary Lake SP,hotspot,
L679395,35.0111936,-80.829742,Six Mile Creek Greenway,hotspot,
L144610,35.0141678,-78.2286148,Six Runs Creek,hotspot,
L1741940,35.2039865,-82.1564712,Slater Sod Farm,hotspot,
L357289,35.1282801,-78.9275837,Smith Lake,hotspot,
L974292,34.5364257,-77.4292159,Sneads Ferry WTP,hotspot,
L1447149,35.3436521,-83.8915178,Snowbird Lodge,hotspot,
L868756,35.9036296,-78.9747611,South Durham WRF,hotspot,
L1515271,36.0077904,-78.9035123,South Ellerbe Creek Trail,hotspot,
L1398970,36.0370445,-79.4066523,South Graham Park,hotspot,
L447127,35.5855026,-81.6489315,South Mountains SP,hotspot,
L447335,35.8861165,-75.582853,South Nags Head,hotspot,
L2081254,35.4795086,-80.8277893,South Prong Rocky River Greenway--Westmoreland Farms,hotspot,
L528908,34.3448534,-77.6596069,South Topsail Beach,hotspot,
L663251,33.9235629,-78.0188942,Southport (NCAT),hotspot,
L935876,33.916712,-78.0188486,Southport Water Overlook,hotspot,
L935886,33.9346014,-77.994411,Southport-Fort Fisher Ferry Parking Lot,hotspot,
L591551,33.9350286,-77.9813004,Southport-Ft Fisher Ferry,hotspot,
L1069979,35.6379588,-81.2239194,Southside Park (Newton),hotspot,
L1265715,35.9470474,-79.873395,Southwest Park,hotspot,
L1234502,35.2553433,-79.3886662,Spring Valley Lake,hotspot,
L1336001,34.7437005,-79.4829521,St. Andrews College Lake,hotspot,
L986035,35.7786021,-81.2843764,St. Stephens Park,hotspot,
L1360691,35.7348579,-81.0939655,Stagecoach Rd.,hotspot,
L2166330,35.8831741,-78.960371,Stagecoach Rd.--Railway easement,hotspot,
L879792,35.8861295,-78.9604139,Stagecoach Road,hotspot,
L998190,35.8849543,-78.9657537,Stagecoach Road Waterfowl Impoundment,hotspot,
L738254,35.3638559,-83.7095547,Stecoah Gap--Forest Service Rd.,hotspot,
L2207684,35.3826822,-78.0410814,Stevens Mill Rd.--fields south of Neuse Correctional Institute,hotspot,
L358717,36.3914403,-81.0660553,Stone Mountain SP,hotspot,
L994666,35.8821483,-82.7140045,Straddle Top Mountain,hotspot,
L588338,34.5506803,-77.450695,Stump Sound Park,hotspot,
L1065851,35.6866928,-75.752552,Stumpy Point Bay,hotspot,
L608706,35.2728383,-80.7997227,Sugar Creek Park & Recreation Center,hotspot,
L1407100,36.1259232,-81.8596408,Sugar Mountain Ski Resort,hotspot,
L689956,34.8133805,-78.6436472,Suggs Mill Pond,hotspot,
L1369790,34.2198393,-77.8150234,Summer Rest Trail,hotspot,
L469291,33.8715558,-78.5078716,Sunset Beach,hotspot,
L1021463,33.8660683,-78.5065842,Sunset Beach--Pier,hotspot,
L749576,33.8833136,-78.526926,Sunset Beach--Twin Lakes,hotspot,
L905897,35.0497785,-83.1853867,Sunset Rock,hotspot,
L588337,34.4103087,-77.571373,Surf City,hotspot,
L1067955,34.4230272,-77.5436625,Surf City Pier,hotspot,
L1065869,35.4032147,-76.3412331,Swanquarter Ferry Terminal,hotspot,
L669141,35.424857,-76.37503,Swanquarter NWR,hotspot,
L1826335,35.3179182,-76.2707865,Swanquarter NWR--Great Island,hotspot,
L813435,35.7187294,-78.7528807,Swift Creek Bluffs,hotspot,
L837041,34.2710133,-77.7875805,Sycamore Bend,hotspot,
L965099,36.1447541,-77.4143887,Sylvan Heights Waterfowl Park,hotspot,
L1445156,35.8426874,-81.8328708,Table Rock Fish Hatchery,hotspot,
L578967,35.2747741,-83.6915302,Tallulah Bog,hotspot,
L1239426,36.0932728,-79.8430538,Tanger Family Bicentennial Garden,hotspot,
L389553,36.016407,-80.4116821,Tanglewood County Park,hotspot,
L1647061,35.889142,-77.8954343,Tar River Reservoir,hotspot,
L1335180,35.882519,-77.9270134,Tar River Reservoir--Sapony Creek arm,hotspot,
L518504,35.9603272,-77.7975368,Tar River Trail--Battle Park,hotspot,
L1879793,35.9568634,-77.8089095,Tar River Trail--Sunset Park to SR 43 Bridge,hotspot,
L515591,35.2535396,-83.8092041,Tatham Gap,hotspot,
L144612,35.0313873,-78.2088852,Ten Mile Swamp - Beulah Church,hotspot,
L144611,35.0261116,-78.1761093,Ten Mile Swamp - Thompson Rd.,hotspot,
L998112,35.6689906,-78.708709,Ten-Ten Road Pond,hotspot,
L626459,35.0685724,-83.380394,Tessentee Bottom Preserve,hotspot,
L1411043,35.2653882,-79.3715251,Thagards Lake,hotspot,
L1790779,35.9008646,-78.8592787,The Hamner Institutes,hotspot,
L743064,35.2784177,-79.3335414,The Heritage,hotspot,
L764946,34.6961072,-76.8325002,Theodore Roosevelt State Natural Area,hotspot,
L440087,35.6231168,-79.9401283,Thornberg Farm,hotspot,
L1048977,35.1315969,-82.6646948,Thunder Lake,hotspot,
L1111500,35.300101,-80.7420444,Toby Creek Greenway,hotspot,
L1067952,34.3639799,-77.6265106,Topsail Island Pier,hotspot,
L247876,34.4191699,-77.5851924,Topsail Sound,hotspot,
L491740,35.4032706,-80.8819056,Torrence Creek Greenway,hotspot,
L1275353,35.712299,-79.1862667,Town Lake Park,hotspot,
L860374,35.2566586,-82.7077818,Transylvania Community Hospital Fields,hotspot,
L2196826,35.2175405,-83.1051135,Trout Creek Rd.--east end,hotspot,
L523242,36.15305,-81.70315,Trout Lake,hotspot,
L1424698,35.5397844,-82.4157947,Troyer Amish Store,hotspot,
L1466987,35.282503,-81.014473,Tuckaseege Park,hotspot,
L633384,35.4842962,-80.1756048,Tuckertown Dam,hotspot,
L144613,35.0141678,-78.1513901,Turkey Creek - Carroll's,hotspot,
L1872110,35.8676737,-77.5210022,U.S.64/NC33 pond,hotspot,
L714664,35.9142529,-79.0492916,UNC Chapel Hill - Coker Arboretum,hotspot,
L506042,35.9146005,-79.0424466,UNC Chapel Hill--Battle Park,hotspot,
L886000,35.3096271,-80.7374096,UNC Charlotte,hotspot,
L487086,34.2356832,-77.9538345,USS North Carolina Memorial,hotspot,
L1334627,35.8737579,-78.7671995,Umstead SP--Big Lake,hotspot,
L974743,35.8388291,-78.7456656,Umstead SP--Reedy Creek Lake,hotspot,
L2105707,35.8337496,-78.7277269,Umstead SP--Turkey Creek Trail,hotspot,
L1537524,34.9795285,-80.4734855,Union Co. Master Gardeners Teaching Garden,hotspot,
L998192,35.9020105,-79.0968289,University Lake,hotspot,
L1835205,35.3123853,-80.7498769,University Lake,hotspot,
L1233473,34.8390622,-80.6608057,Upper Cane Creek Reservoir--Marsh,hotspot,
L1511833,35.4397877,-80.0719229,Uwharrie NF--Arrowhead Campground,hotspot,
L1264959,35.636123,-79.9035001,Uwharrie NF--Birkhead Mountain Trail,hotspot,
L1666131,35.5041965,-80.1037778,Uwharrie NF--Circle Drive Boat Access,hotspot,
L1587681,35.4561029,-80.0773566,Uwharrie NF--King's Mountain Point,hotspot,
L1281584,35.5748129,-79.9454069,Uwharrie NF--Robbins Branch Trail,hotspot,
L1029550,35.6215819,-79.9403,Uwharrie NF--Thornburg Tract,hotspot,
L424469,36.2099687,-81.7768836,Valle Crucis Community Park,hotspot,
L1028577,35.2202752,-80.7452631,Vernedale Ponds,hotspot,
L198987,35.8670529,-76.7393318,Vernon James Research Center,hotspot,
L793642,35.4684995,-77.1995544,Voice of America Site B,hotspot,
L358674,36.1334383,-81.2287903,W Kerr Scott Reservoir--Dam,hotspot,
L358681,36.12609,-81.2359571,W Kerr Scott--Wilkes Skyline Marina,hotspot,
L1336054,36.1114386,-81.2994117,W. Kerr Scott Reservoir--Mountain View Overlook,hotspot,
L1030578,35.3605836,-80.5850601,WW Flowe Park,hotspot,
L1636351,34.0135122,-78.6328169,Waccamaw River--NC904,hotspot,
L1284835,34.1779061,-77.8790277,Wade Park,hotspot,
L1518074,35.2267739,-80.9872928,Walker's Ferry Rd. Cove,hotspot,
L1759536,35.3980883,-80.7680746,Wallace Farms (Private),hotspot,
L1428401,36.2944465,-80.1324209,Walnut Cove Wastewater Treatment Plant wetland,hotspot,
L1236852,35.7332883,-82.6565623,Walnut Island River Park,hotspot,
L1820281,35.8438625,-75.6222862,Wanchese Harbor,hotspot,
L1907940,35.8355736,-75.6193451,Wanchese Marshes,hotspot,
L596716,35.6088129,-82.4315357,Warren Wilson College/Owen Park,hotspot,
L1135330,35.2377416,-82.2085905,Weaverbarton Shuford Memorial Wildlife Sanctuary,hotspot,
L1131638,35.4237838,-82.5414419,Wesfeldt Park,hotspot,
L1537460,35.4619602,-80.7759512,West Branch Nature Preserve,hotspot,
L998195,35.6674566,-78.7574608,West Lake Road Ponds,hotspot,
L2135777,35.515098,-81.453438,West Lincoln Park,hotspot,
L998196,36.0693043,-78.909467,West Point of the Eno Park,hotspot,
L1981137,35.5809872,-82.4933285,Western North Carolina Nature Center,hotspot,
L130756,35.1559334,-79.3689194,Weymouth Woods Nature Preserve,hotspot,
L1334633,35.6913206,-75.9778271,Whipping Creek Lake,hotspot,
L1244531,34.6414938,-78.4972687,White Lake,hotspot,
L1192238,35.7772094,-78.9002037,White Oak Creek Greenway--West side,hotspot,
L998197,35.7549547,-78.959163,White Oak Creek Swamp,hotspot,
L1527468,35.7772843,-78.8890115,White Oak Greenway--Wetland,hotspot,
L1495558,34.7631761,-77.1503644,White Oak River Impoundment,hotspot,
L998198,35.6149325,-79.159363,White Pines Nature Preserve,hotspot,
L720195,35.0839556,-83.1359482,Whiteside Mountain,hotspot,
L1401097,35.6876317,-77.9520949,Wiggins Mill Reservoir--Wiggins Mill Rd.,hotspot,
L1371282,36.1365507,-81.1796999,Wilkes Community College campus,hotspot,
L279127,35.853,-78.747,William B. Umstead SP,hotspot,
L2161941,35.9454802,-79.3219167,William Nealy Memorial Haw River Trail Access,hotspot,
L718178,34.0121733,-77.8991979,Wilmington Beach Jetty,hotspot,
L629099,36.0313318,-81.8385315,Wilson Creek Wilderness Area,hotspot,
L1028580,35.1784036,-80.8407497,Wing Haven Gardens and Bird Sanctuary,hotspot,
L1542685,36.0742252,-77.4019238,Winslow Sod Farm,hotspot,
L1961770,36.1168689,-80.2032852,Winston Lake,hotspot,
L477772,36.0151574,-75.6679058,Wright Brothers National Monument,hotspot,
L357297,34.2144993,-77.7905846,Wrightsville Beach,hotspot,
L512561,34.2177642,-77.8130722,Wrightsville Beach Causeway,hotspot,
L1054424,34.1870979,-77.8114414,Wrightsville Beach--Masonboro Inlet,hotspot,
L1395137,34.2296334,-77.7808486,Wrightsville Beach--Station 2,hotspot,
L1561627,36.1137478,-80.6355989,Yadkin County Park,hotspot,
L792431,36.1290017,-81.204071,Yadkin River Greenway--Becky's Park,hotspot,
L1522489,35.990081,-81.558355,Yadkin River Greenway--Happy Valley,hotspot,
L358722,36.1544051,-81.1591816,Yadkin River Greenway--Mulberry Fields,hotspot,
L486971,35.7190698,-78.6884165,Yates Mill County Park,hotspot,
L581291,35.724357,-80.3908253,York Hill Yadkin River Access,hotspot,
L2096774,35.1237785,-80.8395535,stakeout Bullock's Oriole Charlotte (2012-13),hotspot,
L2066772,34.6630227,-77.0511532,"stakeout Heron Roost, behind Food Lion Plaza, Emerald Isle (2013)",hotspot,
